"Water_Body_Key","Water_Body_Name","FMU_Code","survey_number","Year","Survey_Purpose","new_key","Located_Town","Located_Range","Located_Section","primary_county_name","FirstOfSurvey_Begin_Timestamp","LastOfEnding_Effort_Timestamp","LONG_DD","LAT_DD","IHDLKID"
"12588","Sprinkler Lake","MI-MNH",4587,2004,"Status & Trends","1-113","26N","07E",32,"Alcona","6/14/04","6/17/04",-83.60803,44.60399,NA
"27N05E1801","Crooked Lake","MI-MNH",7942,2009,"Status & Trends","1-138","27N","05E",18,"Alcona","6/8/09","6/11/09",-83.86954,44.73555,113471599
"11984","North Lake","MI-MNH",7558,2008,"Status & Trends","1-16","25N","06E",15,"Alcona","5/27/08","8/27/08",-83.69899,44.57055,83976899
"27N07E0301","Hubbard Lake","MI-MNH",2446,2006,"Status & Trends","1-165","27N","07E",3,"Alcona","5/8/06","5/12/06",-83.55954,44.80416,113471457
"27N08E3601","Brownlee Lake","MI-MNH",3794,2002,"Status & Trends","1-179","27N","08E",36,"Alcona","6/3/02","8/15/02",-83.40954,44.68999,83976131
"25N06E2001","Vaughn Lake","MI-MNH",6298,2006,"Status & Trends","1-29","25N","06E",20,"Alcona","6/5/06","6/8/06",-83.7276,44.53916,83977025
"25N05E1401","Alcona Dam Pond","MI-MNH",4079,2003,"Status & Trends","1-4","25N","05E",14,"Alcona","6/9/03","9/16/03",-83.80491,44.56605,83976953
"10371","Cedar Lake","MI-MNH",8992,2012,"Status & Trends","1-52","25N","09E",15,"Alcona","6/6/11","6/9/12",-83.33204,44.53138,122383359
"26N05E1801","O'Brien Lake","MI-MNH",6258,2006,"Status & Trends","1-63","26N","05E",18,"Alcona","5/16/06","5/18/06",-83.88232,44.64138,83976631
"26N06E3601","Bliss Lake","MI-MNH",4966,2004,"Status & Trends","1-97","26N","06E",36,"Alcona","6/14/04","6/16/04",-83.6551,44.60166,83976721
"26N07E0401","Jewell Lake","MI-MNH",3758,2002,"Status & Trends","1-99","26N","07E",4,"Alcona","6/3/02","8/15/02",-83.60676,44.68055,83976291
"27N13W2601","Lake Ann","MI-MCM",5371,2004,"Status & Trends","10-111","27N","13W",26,"Benzie","6/14/04","6/29/04",-85.84982,44.71554,129225129
"25N15W1901","Upper Herring Lake","MI-MCM",5373,2004,"Status & Trends","10-19","25N","16W",13,"Benzie","5/24/04","6/30/04",-86.18176,44.56193,129224203
"25N16W1401","Lower Herring Lake","MI-MCM",4744,2004,"Status & Trends","10-24","25N","16W",14,"Benzie","5/24/04","7/1/04",-86.21482,44.56471,129224200
"27N15W3301","Platte Lake","MI-MCM",8445,2010,"Status & Trends","10-39","27N","15W",33,"Benzie","5/24/10","5/27/10",-86.09232,44.6911,129223861
"27N13W0703","Pearl Lake","MI-MCM",10987,2016,"Status & Trends","10-66","27N","13W",7,"Benzie","6/20/16","6/27/16",-85.91926,44.76304,129224113
"27N13W0601","Gerry Lake","MI-MCM",7232,2007,"Status & Trends","10-77","27N","13W",6,"Benzie","6/12/07","6/14/07",-85.93593,44.77527,129224103
"11039","Herendeene Lake","MI-MCM",5372,2004,"Status & Trends","10-95","27N","13W",15,"Benzie","6/14/04","6/17/04",-85.86149,44.74054,129225118
"08S06W1801","Lake Lavine","MI-MSM",10029,2013,"Status & Trends","12-121","08S","06W",18,"Branch","5/6/13","5/9/13",-85.03759,41.76804,155637885
"10485","Craig Lake","MI-MSM",9363,2012,"Status & Trends","12-21","05S","06W",29,"Branch","6/4/12","8/23/12",-85.0287,42.00416,155636452
"11711","Morrison Lake","MI-MSM",9309,2012,"Status & Trends","12-23","06S","06W",5,"Branch","6/4/12","6/7/12",-85.02926,41.98832,155636544
"07S05W0501","Archer Lake","MI-MSM",8893,2011,"Status & Trends","12-76","07S","05W",5,"Branch","5/9/11","5/18/11",-84.92259,41.88249,155637174
"07S06W2301","East Long Lake","MI-MSM",8897,2011,"Status & Trends","12-86","07S","06W",23,"Branch","5/9/11","5/19/11",-84.96676,41.84999,155637334
"07S06W3401","Coldwater Lake","MI-MSM",10192,2014,"Status & Trends","12-90","07S","06W",34,"Branch","5/19/14","5/29/14",-84.97565,41.82304,155637570
"12231","Prairie Lake","MI-MSM",10095,2013,"Status & Trends","13-23","01S","04W",33,"Calhoun","5/20/13","8/20/13",-84.79565,42.34554,152518193
"10159","Belas Lake","MI-MSM",6249,2006,"Status & Trends","14-154","06S","14W",24,"Cass","5/15/06","6/7/06",-85.88065,41.93888,155637285
"05S13W07","Finch Lake","MI-MSM",3407,2002,"Status & Trends","14-8","05S","13W",7,"Cass","5/15/02","6/26/02",-85.88204,42.04832,155636555
"10612","Deer Lake","MI-MCM",3496,2003,"Status & Trends","15-15","32N","05W",18,"Charlevoix","5/12/03","7/22/03",-84.9776,45.16832,155417344
"34N08W2601","Lake Charlevoix","MI-MCM",6296,2006,"Status & Trends","15-21","34N","08W",26,"Charlevoix","6/6/06","9/16/06",-85.13343,45.26665,155417357
"33N05W1801","Walloon Lake","MI-MCM",11081,2016,"Status & Trends","15-25","33N","05W",18,"Charlevoix","6/13/16","6/28/16",-85.0001,45.27499,155417299
"12641","Susan Lake","MI-MCM",9252,2012,"Status & Trends","15-56","34N","07W",20,"Charlevoix","6/18/12","6/21/12",-85.18121,45.3261,155417287
"02N09E0201","Cass Lake","MI-MER",11734,2018,"Status & Trends","16-1337","02N","09E",2,"Oakland","5/21/18","6/5/18",NA,NA,NA
"35N02W0701","Mullett Lake","MI-MNH",11374,2018,"Status & Trends","16-192","35N","02W",7,"Cheboygan","5/30/17","1/23/18",-84.51676,45.5361,155411040
"35N03W2401","Burt Lake","MI-MNH",10630,2015,"Status & Trends","16-193","35N","03W",24,"Cheboygan","6/1/15","6/10/15",-84.66676,45.46666,155411074
"37N01E3401","Twin Lakes 2, 3, 4, 5","MI-MNH",9672,2013,"Status & Trends","16-194","","",NA,"Cheboygan","6/10/13","6/24/13",-84.28732,45.53749,155408451
"36N01W1201","Long Lake","MI-MNH",4742,2004,"Status & Trends","16-205","36N","01W",12,"Cheboygan","5/10/04","5/14/04",-84.39871,45.53471,155408453
"11347","Lancaster Lake","MI-MNH",5500,2005,"Status & Trends","16-250","37N","03W",8,"Cheboygan","5/9/05","7/20/05",-84.70788,45.62193,155410950
"37N03W1901","Douglas Lake","MI-MNH",10312,2014,"Status & Trends","16-252","37N","03W",19,"Cheboygan","6/2/14","6/25/14",-84.69704,45.5811,155410978
"33N03W1101","Silver Lake","MI-MNH",8475,2010,"Status & Trends","16-82","33N","03W",11,"Cheboygan","5/24/10","8/18/10",-84.63288,45.26943,155411126
"12742","Carp (Trout) Lake","MI-MNH",5511,2005,"Status & Trends","17-209","44N","06W",27,"Chippewa","5/23/05","8/31/05",-85.04177,46.18332,123110970
"44N06W2601","Frenchman Lake","MI-MNH",4509,2004,"Status & Trends","17-211","44N","06W",26,"Chippewa","5/24/04","8/18/04",-85.01565,46.1836,123110915
"45N05W0601","Walker Lake","MI-MES",6452,2006,"Status & Trends","17-265","45N","05W",6,"Chippewa","8/29/06","8/30/06",-84.9801,46.31749,86671673
"45N05W0602","Whitmarsh Lake","MI-MES",4684,2004,"Status & Trends","17-267","45N","05W",6,"Chippewa","6/1/04","",-84.98454,46.3211,86671661
"47N03W1401","Monocle Lake","MI-MES",7801,2009,"Status & Trends","17-403","47N","03W",14,"Chippewa","6/9/09","7/26/09",-84.64593,46.47416,83826083
"47N03W1401","Monocle Lake","MI-MES",12105,2019,"Status & Trends","17-403","47N","03W",14,"Chippewa","8/13/19","8/13/19",-84.64593,46.47416,83826083
"49N07W1801","Sheephead Lake","MI-MES",4163,2003,"Status & Trends","17-469","49N","07W",18,"Chippewa","7/7/03","7/7/03",-85.22954,46.64138,109943538
"50N06W0601","Weatherhogs Lake","MI-MES",6453,2006,"Status & Trends","17-497","50N","06W",6,"Chippewa","8/23/06","8/25/06",-85.12343,46.75693,109943336
"50N06W2101","Shelldrake Dam Impoundment","MI-MES",9221,2012,"Status & Trends","17-514","50N","06W",21,"Chippewa","6/4/12","6/13/12",-85.06954,46.71054,109943390
"17N04W3501","Lake Shamrock","MI-MSH",10528,2015,"Status & Trends","18-12","17N","04W",35,"Clare","5/18/15","8/10/15",-84.76083,43.83123,149759357
"19N05W3401","Lily Lake","MI-MCM",6918,2007,"Status & Trends","18-123","19N","05W",34,"Clare","6/18/07","10/3/07",-84.90315,43.99443,121858908
"18N05W0801","Lake George","MI-MCM",11439,2017,"Status & Trends","18-125","18N","05W",8,"Clare","5/1/17","5/18/17",-84.92787,43.95027,121859022
"18N05W2201","Bertha Lake","MI-MSH",3812,2002,"Status & Trends","18-134","18N","05W",22,"Clare","5/28/02","5/30/02",-84.8926,43.93221,149759263
"10491","Cranberry Lake","MI-MSH",6889,2007,"Status & Trends","18-196","19N","04W",12,"Clare","5/21/07","8/21/07",-84.74371,44.05749,149759161
"19N04W0201","Arnold Lake","MI-MSH",9074,2012,"Status & Trends","18-197","19N","04W",2,"Clare","6/11/12","8/16/12",-84.75204,44.06943,149759155
"19N04W2101","Budd Lake","MI-MSH",6888,2007,"Status & Trends","18-206","19N","04W",21,"Clare","5/7/07","8/21/07",-84.79426,44.02027,149759180
"19N04W2202","Little Long Lake","MI-MSH",8070,2009,"Status & Trends","18-215","19N","04W",22,"Clare","5/26/09","7/29/09",-84.7851,44.02638,149759182
"11973","Nestor Lakes","MI-MSH",3814,2002,"Status & Trends","18-375","18N","03W",10,"Clare","5/28/02","5/29/02",-84.65596,43.96021,149759249
"11973","Nestor Lakes","MI-MSH",9745,2013,"Status & Trends","18-375","18N","03W",10,"Clare","6/10/13","8/21/13",-84.65596,43.96021,149759249
"17N04W0801","Gut Lake","MI-MSH",10529,2015,"Status & Trends","18-5","17N","04W",8,"Clare","5/18/15","8/11/15",-84.82093,43.88166,149759298
"11767","Big Mud Lake","MI-MSH",7530,2008,"Status & Trends","18-57","17N","06W",6,"Clare","5/12/08","9/3/08",-85.07426,43.90027,150436626
"17N04W1601","Five Lakes","MI-MSH",4604,2004,"Status & Trends","18-6","17N","04W",16,"Clare","5/10/04","8/11/04",-84.80176,43.87249,149759306
"17N04W1601","Five Lakes","MI-MSH",12009,2019,"Status & Trends","18-6","17N","04W",16,"Clare","5/13/19","8/22/19",-84.80176,43.87249,149759306
"17N06W0001","Eight Point Lake","MI-MSH",8394,2010,"Status & Trends","18-66","17N","06W",19,"Clare","6/1/10","8/6/10",-85.07343,43.83999,150436656
"17N06W2201","Crooked Lake","MI-MSH",7334,2008,"Status & Trends","18-69","17N","06W",22,"Clare","5/12/08","8/26/08",-85.01482,43.84749,150436650
"12076","Perch Lake","MI-MSH",7335,2008,"Status & Trends","18-71","17N","06W",23,"Clare","5/12/08","8/26/08",-85.00176,43.84916,150436649
"06N01W0301","Lake Ovid","MI-MSM",4771,2004,"Status & Trends","19-201","07N","01W",34,"Clinton","5/24/04","5/27/04",-84.41459,42.94335,151870743
"05N01W2901","Park Lake","MI-MSM",5234,2004,"Status & Trends","19-21","05N","01W",29,"Clinton","5/10/04","6/10/04",-84.43982,42.78971,152094467
"12739","Trout Lake","MI-MNM",4581,2003,"Status & Trends","2-104","44N","20W",6,"Alger","6/17/03","8/26/03",-86.85877,46.23418,92131020
"45N19W2901","Ready Lake","MI-MNM",10201,2014,"Status & Trends","2-212","45N","19W",29,"Alger","6/16/14","6/19/14",-86.71121,46.26276,120020556
"45N20W1301","Sixteenmile Lake","MI-MNM",12051,2019,"Status & Trends","2-234","45N","20W",13,"Alger","6/17/19","6/21/19",-86.76149,46.30388,113235787
"44N19W1201","Irwin Lake","MI-MNM",7203,2007,"Status & Trends","2-32","44N","19W",12,"Alger","6/26/07","6/28/07",-86.62621,46.21971,44364890
"46N20W0501","Au Train Lake","MI-MES",3881,2002,"Status & Trends","2-361","46N","20W",5,"Alger","6/3/02","6/7/02",-86.83899,46.40388,109946172
"46N20W0501","Au Train Lake","MI-MES",11332,2017,"Status & Trends","2-361","46N","20W",5,"Alger","5/30/17","6/4/17",-86.83899,46.40388,109946172
"47N21W1801","Deer Lake","MI-MES",4667,2004,"Status & Trends","2-461","47N","21W",18,"Alger","6/1/04","8/15/04",-86.96732,46.47749,109945686
"47N21W1801","Deer Lake","MI-MES",12107,2019,"Status & Trends","2-461","47N","21W",18,"Alger","8/27/19","8/27/19",-86.96732,46.47749,109945686
"48N14W0301","Panther Lake","MI-MES",10541,2015,"Status & Trends","2-566","48N","14W",3,"Alger","6/8/15","6/11/15",-86.04177,46.59249,109944788
"10833","Fox Lake","MI-MES",11601,2018,"Status & Trends","2-567","48N","14W",3,"Alger","6/4/18","6/7/18",-86.03454,46.59193,109944790
"10350","Carter Lake","MI-MES",9594,2013,"Status & Trends","2-577","48N","14W",9,"Alger","3/5/13","6/13/13",-86.06927,46.57138,109944994
"48N15W0601","Kingston Lake","MI-MES",4053,2003,"Status & Trends","2-627","48N","15W",6,"Alger","5/27/03","8/19/03",-86.2201,46.58221,109944938
"48N15W0601","Kingston Lake","MI-MES",11599,2018,"Status & Trends","2-627","48N","15W",6,"Alger","6/11/18","6/24/18",-86.2201,46.58221,109944938
"48N16W0701","Beaver Lake","MI-MES",5759,2005,"Status & Trends","2-720","48N","16W",7,"Alger","5/31/05","8/15/05",-86.33871,46.56832,109945392
"48N16W0701","Beaver Lake","MI-MES",11611,2018,"Status & Trends","2-720","48N","16W",7,"Alger","6/18/18","6/25/18",-86.33871,46.56832,109945392
"49N14W1101","Grand Sable Lake","MI-MES",2949,2001,"Status & Trends","2-775","49N","14W",11,"Alger","6/19/01","6/21/01",-86.03871,46.63832,109944440
"49N14W1101","Grand Sable Lake","MI-MES",4669,2004,"Status & Trends","2-775","49N","14W",11,"Alger","6/14/04","8/16/04",-86.03871,46.63832,109944440
"45N20W3501","Cook Lake","MI-MNM",8549,2010,"Status & Trends","2-95","45N","20W",35,"Alger","5/24/10","8/11/10",-86.78232,46.24721,113235893
"12451","Section One Lake","MI-MNH",3867,2002,"Status & Trends","20-105","28N","03W",1,"Crawford","6/10/02","8/14/02",-84.61871,44.85471,83976031
"28N03W0601","Big Bradford Lake","MI-MNH",6945,2007,"Status & Trends","20-109","28N","03W",6,"Crawford","5/14/07","5/15/07",-84.71193,44.85702,83976007
"26N02W2301","Wakeley Lake","MI-MNH",11377,2017,"Status & Trends","20-28","26N","02W",23,"Crawford","5/22/17","8/22/17",-84.51371,44.63388,83976921
"28N01W1801","Shupac Lake","MI-MNH",11745,2019,"Status & Trends","20-76","28N","01W",18,"Crawford","6/4/18","1/18/19",-84.47621,44.82166,83976061
"28N02W3001","Jones Lake","MI-MNH",9282,2012,"Status & Trends","20-96","28N","02W",30,"Crawford","5/14/12","8/23/12",-84.5926,44.78416,83976219
"41N24W0201","Boney Falls Basin","MI-MNM",11784,2018,"Status & Trends","21-257","41N","24W",2,"Delta","6/11/18","8/21/18",-87.26948,45.98156,152512637
"42N18W0302","Gooseneck Lake","MI-MNM",10376,2014,"Status & Trends","21-266","42N","18W",3,"Delta","6/9/14","6/12/14",-86.54843,46.06832,113236075
"42N18W0801","Jug Lake","MI-MNM",10195,2014,"Status & Trends","21-276","42N","18W",8,"Delta","6/2/14","8/25/14",-86.59232,46.04249,113236151
"43N18W3402","Camp Fortyone Lake","MI-MNM",11143,2016,"Status & Trends","21-454","43N","18W",34,"Delta","6/6/16","8/24/16",-86.53065,46.08026,NA
"43N19W2401","Dana Lake","MI-MNM",12104,2019,"Status & Trends","21-479","43N","19W",24,"Delta","8/27/19","8/27/19",-86.62621,46.11276,113236011
"40N31W1302","Ford Dam","MI-MNM",12071,2019,"Status & Trends","22-123","40N","31W",13,"Dickinson","6/10/19","6/20/19",-88.12634,45.80755,NA
"39N28W3001","Mary Lake","MI-MNM",7523,2008,"Status & Trends","22-14","39N","28W",30,"Dickinson","6/9/08","8/18/08",-87.81926,45.7511,75474195
"42N28W0601","Gene Pond","MI-MNM",10375,2014,"Status & Trends","22-182","42N","28W",6,"Dickinson","6/2/14","6/5/14",-87.86676,46.06887,NA
"43N28W3301","Pickerel Lake","MI-MNM",11779,2018,"Status & Trends","22-236","43N","28W",33,"Dickinson","6/4/18","6/21/18",-87.80982,46.08026,155413318
"44N30W1401","Silver Lake","MI-MNM",3931,2002,"Status & Trends","22-350","44N","30W",14,"Dickinson","6/18/02","9/3/02",-88.01843,46.2036,110736239
"44N30W2801","Sawyer Lake","MI-MNM",6334,2006,"Status & Trends","22-375","44N","30W",28,"Dickinson","6/21/06","6/29/06",-88.05982,46.18249,110736373
"41N29W1801","South Lake (Grov. Mine Pd. 4)","MI-MNM",4135,2003,"Status & Trends","22-383","41N","29W",18,"Dickinson","6/2/03","9/30/03",-87.98019,45.95526,75472817
"40N29W0601","Carney Lake","MI-MNM",8114,2009,"Status & Trends","22-65","40N","29W",6,"Dickinson","6/1/09","9/3/09",-87.93371,45.89665,75472993
"12905","Wycamp Lake","MI-MCM",12034,2019,"Status & Trends","24-204","38N","06W",25,"Emmet","5/20/19","5/31/19",-84.96565,45.66054,155417250
"35N04W1501","Crooked Lake","MI-MNH",12020,2019,"Status & Trends","24-27","35N","04W",15,"Emmet","6/3/19","6/24/19",-84.82593,45.41082,155411095
"37N05W1601","Larks Lake","MI-MNH",5473,2005,"Status & Trends","24-71","37N","05W",16,"Emmet","6/6/05","6/9/05",-84.92982,45.60471,155410966
"05N05E3501","Lobdell Lake","MI-MSH",4039,2003,"Status & Trends","25-11","05N","05E",35,"Genesee","5/19/03","6/2/03",-83.84436,42.79065,148710305
"08N07E3301","Kearsley Reservoir","MI-MSH",7332,2008,"Status & Trends","25-124","08N","07E",33,"Genesee","6/2/08","9/8/08",-83.6559,43.05522,147104198
"08N08E1101","Holloway Reservoir","MI-MSH",7451,2008,"Status & Trends","25-125","08N","08E",11,"Genesee","5/19/08","9/2/08",-83.49165,43.12026,147104082
"08N08E1101","Holloway Reservoir","MI-MSH",10942,2016,"Status & Trends","25-125","08N","08E",11,"Genesee","5/23/16","5/26/16",-83.49165,43.12026,147104082
"09N07E0201","Buell Lake","MI-MSH",10480,2015,"Status & Trends","25-134","09N","07E",2,"Genesee","5/11/15","8/17/15",-83.61621,43.20888,149729985
"08N07E2102","Mott Lake","MI-MSH",7331,2008,"Status & Trends","25-163","08N","07E",21,"Genesee","5/27/08","9/8/08",-83.65236,43.08064,147104147
"05N06E1401","Lake Fenton","MI-MSH",8826,2011,"Status & Trends","25-35","05N","06E",14,"Genesee","5/23/11","8/17/11",-83.71537,42.83471,148710132
"05N06E2101","Lake Ponemah","MI-MSH",9069,2012,"Status & Trends","25-46","05N","06E",21,"Genesee","5/21/12","8/20/12",-83.74176,42.81666,148710177
"18N01E1501","Smallwood Lake","MI-MSH",9073,2012,"Status & Trends","26-12","18N","01E",15,"Gladwin","5/21/12","8/21/12",-84.33593,43.96027,149759238
"17N02W0201","Ross Lake","MI-MSH",4169,2003,"Status & Trends","26-2","17N","02W",12,"Gladwin","5/12/03","8/19/03",-84.48406,43.88381,149759308
"17N02W0201","Ross Lake","MI-MSH",11691,2018,"Status & Trends","26-2","17N","02W",12,"Gladwin","6/11/18","8/22/18",-84.48406,43.88381,149759308
"19N02W2101","Pratt Lake","MI-MSH",4165,2003,"Status & Trends","26-20","19N","02W",22,"Gladwin","5/5/03","8/31/03",-84.54704,44.02499,NA
"19N02W2101","Pratt Lake","MI-MSH",11692,2018,"Status & Trends","26-20","19N","02W",22,"Gladwin","6/18/18","8/23/18",-84.54704,44.02499,NA
"19N01E1501","Secord Lake","MI-MSH",7646,2008,"Status & Trends","26-23","19N","01E",15,"Gladwin","6/2/08","8/29/08",-84.34176,44.04166,149759163
"16N01E0401","Wixom Lake","MI-MSH",3451,2002,"Status & Trends","26-3","16N","01E",4,"Gladwin","5/14/02","6/5/02",-84.38478,43.817,NA
"16N01E0401","Wixom Lake","MI-MSH",10157,2014,"Status & Trends","26-3","16N","01E",4,"Gladwin","5/19/14","8/19/14",-84.38478,43.817,NA
"20N02W0901","Trout Lake","MI-MSH",10530,2015,"Status & Trends","26-32","20N","02W",9,"Gladwin","5/26/15","8/12/15",-84.5651,44.1361,149759089
"20N02W0801","Hoister Lake","MI-MSH",5998,2005,"Status & Trends","26-33","20N","02W",8,"Gladwin","7/28/05","5/25/05",-84.56676,44.14166,149759080
"20N02W1601","Streaked Lake","MI-MSH",9675,2013,"Status & Trends","26-35","20N","02W",16,"Gladwin","5/28/13","8/20/13",-84.55454,44.12916,149759093
"19N02W3401","Wiggins Lake","MI-MSH",8078,2009,"Status & Trends","26-4","19N","02W",34,"Gladwin","5/26/09","8/12/09",-84.54371,43.9961,149759227
"11272","Lake Four","MI-MSH",11385,2017,"Status & Trends","26-53","20N","01W",4,"Gladwin","6/5/17","8/14/17",-84.44565,44.15499,149759072
"20N01W2101","Lake Lancer","MI-MSH",8393,2010,"Status & Trends","26-64","20N","01W",21,"Gladwin","5/17/10","8/5/10",-84.45084,44.10728,149759134
"11624","McDonald Lake","MI-MWS",11138,2016,"Status & Trends","27-1026","46N","46W",24,"Gogebic","6/6/16","8/25/16",-90.00371,46.37637,123147641
"47N45W0801","Sunday Lake","MI-MWS",8055,2009,"Status & Trends","27-1063","47N","45W",8,"Gogebic","6/22/09","8/26/09",-89.96055,46.48115,123147563
"44N39W2001","Duck Lake","MI-MWS",4713,2003,"Status & Trends","27-108","44N","39W",20,"Gogebic","6/10/03","6/17/03",-89.21676,46.20832,123397648
"44N39W2401","Dinner Lake","MI-MWS",5354,2004,"Status & Trends","27-117","44N","39W",24,"Gogebic","6/7/04","7/6/04",-89.13565,46.19998,123397854
"45N39W1501","Bass Lake","MI-MWS",5736,2005,"Status & Trends","27-520","45N","39W",15,"Gogebic","5/16/05","8/17/05",-89.17427,46.30498,123396104
"45N41W2001","Langford Lake","MI-MWS",5368,2004,"Status & Trends","27-696","45N","41W",20,"Gogebic","6/7/04","7/8/04",-89.47926,46.27498,123396879
"45N42W2001","Pomeroy Lake","MI-MWS",6506,2006,"Status & Trends","27-761","45N","42W",20,"Gogebic","5/30/06","6/1/06",-89.5751,46.27915,123147889
"45N44W1301","Eel Lake","MI-MWS",8053,2009,"Status & Trends","27-914","45N","44W",13,"Gogebic","6/8/09","8/24/09",-89.76121,46.29582,123147813
"45N45W0201","Chaney Lake","MI-MWS",8052,2009,"Status & Trends","27-933","45N","45W",2,"Gogebic","6/1/09","6/4/09",-89.9126,46.31665,123147724
"44N39W0701","Little Duck Lake","MI-MWS",10979,2016,"Status & Trends","27-97","44N","39W",7,"Gogebic","6/13/16","6/21/16",-89.22754,46.22615,123397605
"46N43W2701","Bobcat Lake","MI-MWS",8054,2009,"Status & Trends","27-980","46N","43W",27,"Gogebic","6/1/09","7/8/09",-89.66954,46.35693,123147643
"27N11W1401","Boardman Lake","MI-MCM",3491,2003,"Status & Trends","28-187","27N","11W",14,"Grand Traverse","5/19/03","7/14/03",-85.61472,44.75667,155417550
"25N12W0501","Green Lake","MI-MCM",3895,2003,"Status & Trends","28-56","25N","12W",5,"Grand Traverse","6/2/03","7/15/03",-85.78426,44.61138,129226235
"10026","Arbutus Lake","MI-MCM",7406,2008,"Status & Trends","28-84","26N","10W",9,"Grand Traverse","6/9/08","6/12/08",-85.51815,44.66443,155417639
"12N03W2401","St Louis Impoundment","MI-MSH",8391,2010,"Status & Trends","29-101","12N","02W",19,"Gratiot","6/7/10","6/7/10",-84.60675,43.41344,NA
"11N03W0501","Alma Impoundment","MI-MSH",10056,2014,"Status & Trends","29-59","11N","03W",5,"Gratiot","5/27/14","8/21/14",-84.66882,43.37349,NA
"02N13W0501","Dumont Lake","MI-MSM",11037,2016,"Status & Trends","3-153","02N","13W",5,"Allegan","5/18/16","5/26/16",-85.86454,42.59249,152517590
"02N15W0601","Hutchins Lake","MI-MSM",6912,2007,"Status & Trends","3-178","02N","15W",6,"Allegan","5/7/07","5/10/07",-86.13009,42.57971,152274829
"11204","Kalamazoo Lake","MI-MSM",8548,2010,"Status & Trends","3-297","03N","16W",16,"Allegan","5/17/10","5/26/10",-86.20704,42.65054,NA
"01N14W3601","Duck Lake","MI-MSM",8542,2010,"Status & Trends","3-63","01N","14W",36,"Allegan","5/10/10","6/21/10",-85.90204,42.42638,152517912
"01N15W2601","Osterhout Lake","MI-MSM",6924,2007,"Status & Trends","3-71","01N","15W",26,"Allegan","5/21/07","5/30/07",-86.04009,42.43499,152274857
"07S03W0103","Fourth (Foot) Lake","MI-MSM",11038,2016,"Status & Trends","30-222","07S","03W",1,"Hillsdale","5/2/16","5/5/16",-84.59565,41.88582,155636850
"07S02W2701","Bird Lake","MI-MER",8912,2011,"Status & Trends","30-245","07S","02W",27,"Hillsdale","5/16/11","6/7/11",-84.52981,41.82888,150994111
"07S03W1701","Bear Lake","MI-MER",10964,2016,"Status & Trends","30-259","07S","03W",17,"Hillsdale","5/16/16","6/10/16",-84.68092,41.8686,150994099
"12337","Round Lake","MI-MSM",3409,2002,"Status & Trends","30-276","07S","04W",4,"Hillsdale","6/17/02","6/20/02",-84.76815,41.89666,155636890
"07S04W0801","Long Lake","MI-MSM",11914,2018,"Status & Trends","30-278","07S","04W",8,"Hillsdale","5/7/18","5/16/18",-84.79676,41.87332,155637094
"55N31W1701","Rice Lake","MI-MWS",12047,2019,"Status & Trends","31-1164","55N","31W",17,"Houghton","6/10/19","6/19/19",-88.28482,47.1636,116542581
"55N32W1901","Torch Lake","MI-MWS",7105,2007,"Status & Trends","31-1178","55N","32W",19,"Houghton","6/4/07","",-88.4251,47.15832,116542605
"10782","Estes Lake","MI-MWS",9895,2013,"Status & Trends","31-263","48N","36W",13,"Houghton","6/10/13","6/13/13",-88.75454,46.55804,117627381
"49N37W0301","Bob Lake","MI-MWS",5375,2004,"Status & Trends","31-585","49N","37W",3,"Houghton","6/14/04","7/22/04",-88.90871,46.66582,123390259
"51N36W1101","Pike Lake","MI-MWS",7170,2007,"Status & Trends","31-760","51N","36W",11,"Houghton","5/14/07","7/23/07",-88.84482,46.83471,117626013
"12427","Sandy Lake","MI-MWS",7167,2007,"Status & Trends","31-767","52N","36W",34,"Houghton","5/14/07","7/23/07",-88.87093,46.85137,117625857
"52N34W0101","Otter Lake","MI-MWS",8491,2010,"Status & Trends","31-825","52N","34W",1,"Houghton","5/17/10","5/26/10",-88.57371,46.91332,117625661
"52N36W1301","Lake Gerald","MI-MWS",7169,2007,"Status & Trends","31-909","52N","36W",13,"Houghton","5/8/07","8/27/07",-88.83121,46.89915,116543277
"52N36W2201","Lake Roland","MI-MWS",7168,2007,"Status & Trends","31-915","52N","36W",22,"Houghton","5/8/07","5/18/07",-88.85121,46.88971,116543343
"55N34W0401","Portage Lake","MI-MWS",7106,2007,"Status & Trends","31-993","55N","34W",4,"Houghton","6/4/07","7/27/07",-88.49704,47.06637,116542683
"12378","Rush Lake","MI-MSH",8827,2011,"Status & Trends","32-5","18N","11E",14,"Huron","5/31/11","8/12/11",-83.1776,43.96388,152237832
"08N06W1801","Woodard Lake","MI-MSM",8736,2010,"Status & Trends","34-69","08N","06W",18,"Ionia","6/14/10","6/22/10",-85.06232,43.08138,152707582
"08N07W0301","Long Lake","MI-MSM",11036,2016,"Status & Trends","34-73","08N","07W",3,"Ionia","6/6/16","6/9/16",-85.12259,43.11332,152707507
"23N05E3101","Londo Lake","MI-MSH",4198,2003,"Status & Trends","35-104","23N","05E",31,"Iosco","5/27/03","7/31/04",-83.86954,44.3486,118253477
"23N05E3101","Londo Lake","MI-MSH",11689,2018,"Status & Trends","35-104","23N","05E",31,"Iosco","6/25/18","8/21/18",-83.86954,44.3486,118253477
"23N05E3001","West Londo Lake","MI-MSH",10988,2016,"Status & Trends","35-105","23N","05E",30,"Iosco","6/7/16","8/25/16",-83.87926,44.35416,118253443
"11130","Indian Lake","MI-MSH",3729,2002,"Status & Trends","35-109","23N","06E",36,"Iosco","6/3/02","6/4/02",-83.64954,44.34721,118253341
"11130","Indian Lake","MI-MSH",11363,2017,"Status & Trends","35-109","23N","06E",36,"Iosco","5/15/17","5/22/17",-83.64954,44.34721,118253341
"24N05E0801","Chain Lakes","MI-MNH",11729,2018,"Status & Trends","35-176","24N","05E",8,"Iosco","5/21/18","8/28/18",-83.84954,44.48582,83977267
"24N06E2101","Loud Dam Pond","MI-MNH",7556,2008,"Status & Trends","35-199","24N","06E",21,"Iosco","5/5/08","8/27/08",-83.72232,44.46332,83977413
"24N06E2301","Five Channels Impoundment","MI-MNH",10957,2017,"Status & Trends","35-200","24N","06E",23,"Iosco","6/20/16","1/13/17",-83.67721,44.45588,83977399
"24N07E1501","Cooke Dam Pond","MI-MNH",7559,2008,"Status & Trends","35-201","24N","07E",15,"Iosco","6/9/08","8/20/08",-83.57251,44.47257,83977435
"24N08E3401","Foote Pond","MI-MNH",3522,2002,"Status & Trends","35-205","24N","08E",34,"Iosco","5/20/02","5/23/02",-83.44289,44.43552,83977349
"24N09E2701","Van Etten Lake","MI-MNH",8524,2010,"Status & Trends","35-219","24N","09E",27,"Iosco","5/24/10","7/14/10",-83.35982,44.47221,83977123
"23N06E3601","Round Lake","MI-MSH",3730,2002,"Status & Trends","35-4","23N","06E",36,"Iosco","6/3/02","7/2/02",-83.6601,44.33943,118253341
"23N06E3601","Round Lake","MI-MSH",11364,2017,"Status & Trends","35-4","23N","06E",36,"Iosco","5/15/17","5/22/17",-83.6601,44.33943,118253341
"22N06E0201","Floyd Lake","MI-MSH",7333,2008,"Status & Trends","35-5","22N","06E",2,"Iosco","5/27/08","9/5/08",-83.66676,44.33055,118253529
"12680","Tawas Lake","MI-MSH",6590,2006,"Status & Trends","35-54","22N","08E",19,"Iosco","5/15/06","5/18/06",-83.48593,44.31332,120020697
"12680","Tawas Lake","MI-MSH",11688,2018,"Status & Trends","35-54","22N","08E",19,"Iosco","6/4/18","8/29/18",-83.48593,44.31332,120020697
"22N06E1101","Sand Lake","MI-MSH",4181,2003,"Status & Trends","35-9","22N","06E",11,"Iosco","5/19/03","8/31/03",-83.68093,44.32555,118253593
"22N06E1101","Sand Lake","MI-MSH",12011,2019,"Status & Trends","35-9","22N","06E",11,"Iosco","5/20/19","5/22/19",-83.68093,44.32555,118253593
"23N05E0301","Loon Lake","MI-MSH",8829,2011,"Status & Trends","35-95","23N","05E",3,"Iosco","6/6/11","8/9/11",-83.82371,44.40971,118252887
"23N05E0501","Long Lake","MI-MSH",4210,2003,"Status & Trends","35-96","23N","05E",5,"Iosco","6/10/03","8/20/03",-83.85399,44.41499,118252855
"23N05E0501","Long Lake","MI-MSH",12016,2019,"Status & Trends","35-96","23N","05E",5,"Iosco","6/3/19","6/11/19",-83.85399,44.41499,118252855
"42N33W0401","Fortune Lake, Fourth","MI-MNM",12044,2019,"Status & Trends","36-132","42N","33W",4,"Iron","6/3/19","6/20/19",-88.44621,46.06582,111864605
"41N33W0402","Fortune Lake, Third","MI-MNM",12048,2019,"Status & Trends","36-132","41N","33W",4,"Iron","6/3/19","6/3/19",-88.44621,46.06582,111864605
"42N33W3101","Chicagon Lake","MI-MNM",8113,2009,"Status & Trends","36-137","42N","33W",31,"Iron","5/28/09","6/25/09",-88.50593,46.05693,111861285
"42N34W1302","Indian Lake","MI-MNM",4732,2004,"Status & Trends","36-138","42N","34W",13,"Iron","6/21/04","7/12/04",-88.49676,46.04249,111861321
"46N35W0401","Norway Lake","MI-MWS",5352,2003,"Status & Trends","36-1488","46N","35W",4,"Iron","6/9/03","6/11/03",-88.68593,46.41471,117627709
"46N35W2201","Perch Lake","MI-MWS",6507,2006,"Status & Trends","36-1529","46N","35W",22,"Iron","6/12/06","6/15/06",-88.66177,46.36221,117627737
"46N35W3002","Hannah (Webb) Lake","MI-MWS",8056,2009,"Status & Trends","36-1536","46N","35W",30,"Iron","6/15/09","6/18/09",-88.72093,46.3536,NA
"46N35W3002","Hannah (Webb) Lake","MI-MWS",11780,2018,"Status & Trends","36-1536","46N","35W",30,"Iron","6/4/18","6/20/18",-88.72093,46.3536,NA
"42N32W3201","Stager Lake","MI-MNM",9371,2012,"Status & Trends","36-17","42N","32W",32,"Iron","5/28/12","7/11/12",-88.33149,45.98415,111861517
"42N35W1801","Camp Lake","MI-MNM",8125,2009,"Status & Trends","36-174","42N","35W",18,"Iron","6/15/09","9/10/09",-88.72315,46.04332,111861361
"42N36W0201","Hagerman Lake","MI-MNM",8566,2010,"Status & Trends","36-190","42N","36W",2,"Iron","5/20/10","5/26/10",-88.77982,46.05971,111861293
"46N37W1301","Tepee Lake","MI-MWS",4134,2003,"Status & Trends","36-1936","46N","37W",13,"Iron","6/16/03","8/26/03",-88.87804,46.38528,123393951
"11636","Michigamme Falls Reservoir","MI-MNM",11456,2017,"Status & Trends","36-2","41N","31W",16,"Iron","6/12/17","7/13/17",-88.19692,45.95601,110736763
"43N31W0601","Michigamme Reservoir (Way Dam)","MI-MNM",7522,2008,"Status & Trends","36-204","43N","31W",6,"Iron","6/29/08","7/10/08",-88.23498,46.15992,110736531
"46N37W","Paint Lake","MI-MNM",4037,2003,"Status & Trends","36-2067","46N","37W",36,"Iron","6/9/03","7/15/03",-88.88927,46.35221,111860119
"43N33W0201","Swan Lake","MI-MNM",8911,2012,"Status & Trends","36-307","43N","33W",2,"Iron","6/6/11","6/9/12",-88.39482,46.16332,111860805
"12070","Peavy Pond","MI-MNM",4919,2004,"Status & Trends","36-32","42N","31W",32,"Iron","5/1/04","6/16/04",-88.20871,45.9911,110736743
"42N31W0801","Lake Mary","MI-MNM",8530,2010,"Status & Trends","36-34","42N","31W",8,"Iron","5/19/10","6/10/10",-88.22176,46.05721,110736651
"43N34W0701","Sunset Lake","MI-MNM",10168,2014,"Status & Trends","36-355","43N","34W",7,"Iron","6/4/14","6/10/14",-88.59038,46.13221,111860937
"43N34W2401","Lake Emily","MI-MNM",3692,2002,"Status & Trends","36-363","43N","34W",24,"Iron","6/3/02","8/29/02",-88.50149,46.11249,111861049
"43N35W1001","Iron Lake","MI-MNM",9316,2012,"Status & Trends","36-384","43N","35W",10,"Iron","6/18/12","6/21/12",-88.65232,46.14471,111860863
"11315","Lake Ottawa","MI-MNM",9423,2012,"Status & Trends","36-417","43N","36W",25,"Iron","5/14/12","7/10/12",-88.76204,46.0861,111861257
"44N33W2901","Fire Lake","MI-MNM",6908,2007,"Status & Trends","36-686","44N","33W",29,"Iron","6/11/07","8/21/07",-88.46927,46.19276,111860699
"45N32W0501","Deer Lake","MI-MNM",6297,2006,"Status & Trends","36-849","45N","32W",5,"Iron","6/6/06","9/19/06",-88.32649,46.3261,110735625
"15N05W3001","Coldwater Lake","MI-MSH",8077,2009,"Status & Trends","37-109","15N","05W",30,"Isabella","6/1/09","8/6/09",-84.95593,43.6611,150436783
"12339","Round Lake","MI-MSH",10761,2016,"Status & Trends","37-110","15N","06W",7,"Isabella","5/31/16","8/29/16",-85.08009,43.69749,150436761
"11464","Long Lake","MI-MSH",10762,2016,"Status & Trends","37-111","15N","06W",7,"Isabella","5/31/16","8/29/16",-85.08287,43.70027,150436756
"15N07W1204","Hoffman Lake","MI-MSH",10980,2016,"Status & Trends","37-112","15N","07W",12,"Mecosta","5/31/16","8/29/16",-85.08676,43.70193,150436756
"16N04W1901","Stevenson Lake","MI-MSH",3779,2002,"Status & Trends","37-120","16N","04W",19,"Isabella","5/7/02","6/6/02",-84.82121,43.76277,NA
"16N04W1901","Stevenson Lake","MI-MSH",11381,2017,"Status & Trends","37-120","16N","04W",19,"Isabella","5/22/17","8/15/17",-84.82121,43.76277,NA
"16N05W2001","Littlefield Lake","MI-MSH",7647,2008,"Status & Trends","37-139","16N","05W",20,"Isabella","6/9/08","6/19/08",-84.94509,43.77249,NA
"10252","Blanchard Millpond","MI-MSH",9669,2013,"Status & Trends","37-67","13N","06W",18,"Isabella","5/20/13","",-85.07509,43.52332,150436870
"03S01W1401","Sharp Lake","MI-MSM",11502,2017,"Status & Trends","38-381","03S","01W",14,"Jackson","5/15/17","5/18/17",-84.39593,42.20443,NA
"04S01W3001","Round Lake","MI-MSM",4033,2003,"Status & Trends","38-568","04S","01W",30,"Jackson","5/14/03","5/22/03",-84.47259,42.08832,152518646
"01S12W0501","Ruppert Lake","MI-MSM",4760,2004,"Status & Trends","39-129","01S","12W",5,"Kalamazoo","5/17/04","5/27/04",-85.7337,42.40749,152517994
"01S09W1801","Gull Lake","MI-MSM",3415,2002,"Status & Trends","39-13","01S","09W",18,"Kalamazoo","5/20/02","8/15/02",-85.40261,42.37836,152517995
"04S10W0401","Indian Lake","MI-MSM",8653,2010,"Status & Trends","39-249","04S","10W",4,"Kalamazoo","5/3/10","5/27/10",-85.48426,42.15277,155635994
"04S11W0301","Gourdneck Lake","MI-MSM",5509,2005,"Status & Trends","39-270","04S","11W",3,"Kalamazoo","5/23/05","6/20/05",-85.57898,42.15804,155636056
"29N05E1101","Beaver Lake","MI-MNH",8477,2010,"Status & Trends","4-1","29N","05E",11,"Alpena","6/21/10","8/26/10",-83.79899,44.93777,113471071
"31N07E1201","Seven Mile Impoundment","MI-MNH",8094,2009,"Status & Trends","4-15","31N","07E",12,"Alpena","5/11/09","5/14/09",-83.52047,45.10243,113470293
"31N08E0701","Four Mile Impoundment","MI-MNH",10950,2017,"Status & Trends","4-16","31N","08E",7,"Alpena","5/2/16","2/7/17",-83.50301,45.09305,113470293
"31N08E2201","Ninth Street Imp.","MI-MNH",10558,2015,"Status & Trends","4-20","31N","08E",22,"Alpena","5/18/15","6/2/15",-83.43755,45.07278,113470389
"10815","Fletcher Pond","MI-MNH",5510,2005,"Status & Trends","4-4","30N","05E",21,"Alpena","5/16/05","8/23/05",-83.84287,44.98277,113471001
"32N08E1501","Long Lake","MI-MNH",4935,2004,"Status & Trends","4-42","32N","08E",15,"Alpena","6/14/04","6/18/04",-83.43694,45.16547,122383070
"27N05W1701","Bear Lake","MI-MCM",4594,2004,"Status & Trends","40-104","27N","05W",20,"Kalkaska","5/24/04","5/27/04",-84.94399,44.72916,60087894
"27N06W0301","Manistee Lake","MI-MCM",3498,2004,"Status & Trends","40-117","27N","06W",3,"Kalkaska","5/17/04","5/20/04",-85.02065,44.78249,60087814
"27N06W1801","Crawford Lake","MI-MCM",6785,2007,"Status & Trends","40-145","27N","06W",18,"Kalkaska","5/7/07","9/25/07",-85.07899,44.7286,155417553
"27N08W3001","Guernsey Lake","MI-MCM",7883,2010,"Status & Trends","40-192","27N","08W",30,"Kalkaska","5/11/09","1/21/10",-85.32704,44.7111,155417594
"28N05W0501","Starvation Lake","MI-MCM",7587,2008,"Status & Trends","40-207","28N","05W",5,"Kalkaska","5/13/08","5/16/08",-84.94787,44.84666,60087664
"26N07W2101","East Lake","MI-MCM",3499,2004,"Status & Trends","40-61","26N","07W",21,"Kalkaska","5/10/04","5/13/04",-85.15621,44.63665,60088122
"08N09W3301","Murray Lake","MI-MSM",5505,2005,"Status & Trends","41-176","08N","09W",33,"Kent","5/1/05","5/31/05",-85.37954,43.03999,152707734
"07N11W3401","Reed Lake","MI-MSM",8109,2009,"Status & Trends","41-255.1","07N","11W",34,"Kent","5/11/09","6/18/09",-85.60343,42.95054,152707902
"10333","Campbell Lake","MI-MSM",6309,2006,"Status & Trends","41-29","05N","09W",19,"Kent","6/26/06","8/29/06",-85.42565,42.81138,157067745
"09N09W3301","Wabasis Lake","MI-MSM",8531,2010,"Status & Trends","41-464","09N","09W",33,"Kent","6/7/10","6/24/10",-85.37732,43.13804,152707436
"10N11W3201","Lime Lake","MI-MSM",10571,2015,"Status & Trends","41-510","10N","11W",32,"Kent","5/18/15","5/21/15",-85.63732,43.20665,152707244
"10326","Camp Lake","MI-MSM",4129,2003,"Status & Trends","41-516","09N","11W",7,"Kent","5/19/03","8/22/03",-85.66593,43.17665,152707304
"59N28W3401","Lake Fanny Hooe","MI-MWS",7101,2007,"Status & Trends","42-146","59N","28W",34,"Keweenaw","5/21/07","7/25/07",-87.86427,47.4636,116542223
"12691","Thayer Lake","MI-MWS",8489,2010,"Status & Trends","42-18","57N","31W",32,"Keweenaw","6/14/10","6/17/10",-88.26177,47.28915,116542475
"10620","Deer Lake","MI-MWS",9945,2013,"Status & Trends","42-34","57N","29W",6,"Keweenaw","6/24/13","6/27/13",-88.03732,47.35193,116542423
"57N30W0301","Lake Gratiot","MI-MWS",5506,2005,"Status & Trends","42-36","57N","30W",3,"Keweenaw","5/23/05","8/16/05",-88.12899,47.35304,116542415
"Kewee0031","Schlatter Lake","MI-MWS",9291,2012,"Status & Trends","42-61","58N","27W",16,"Keweenaw","6/25/12","6/28/12",-87.7401,47.42971,116542253
"58N29W0401","Lake Medora","MI-MWS",5408,2004,"Status & Trends","42-86","58N","29W",4,"Keweenaw","6/14/04","8/4/04",-87.98232,47.44221,116542245
"58N29W0401","Lake Medora","MI-MWS",11458,2017,"Status & Trends","42-86","58N","29W",4,"Keweenaw","8/22/17","8/22/17",-87.98232,47.44221,116542245
"58N29W0401","Lake Medora","MI-MWS",11785,2018,"Status & Trends","42-86","58N","29W",4,"Keweenaw","6/21/18","6/28/18",-87.98232,47.44221,116542245
"58N30W0201","Lake Bailey","MI-MWS",8490,2010,"Status & Trends","42-93","58N","30W",2,"Keweenaw","6/21/10","6/24/10",-88.09843,47.45749,116542239
"19N14W0301","Loon Lake","MI-MCM",6337,2006,"Status & Trends","43-198","19N","14W",3,"Lake","6/19/06","8/2/06",-85.9751,44.06804,82815230
"20N14W1501","Harper Lake","MI-MCM",5137,2004,"Status & Trends","43-254","20N","14W",15,"Lake","6/1/04","6/21/04",-85.97343,44.13304,NA
"17N12W0501","Idlewild Lake","MI-MCM",6267,2006,"Status & Trends","43-37","17N","12W",5,"Lake","5/16/06","8/29/06",-85.78454,43.8886,82816492
"07N09E1401","Lake Nepessing","MI-MSH",8828,2011,"Status & Trends","44-159","07N","09E",14,"Lapeer","5/31/11","8/10/11",-83.37176,43.01749,147104249
"08N10E0601","Sawdel Lake","MI-MSH",9076,2012,"Status & Trends","44-230","08N","10E",6,"Lapeer","5/29/12","8/14/12",-83.34176,43.1386,147104019
"06N09E1201","Lake Minnewanna","MI-MSH",3529,2002,"Status & Trends","44-25","06N","09E",12,"Lapeer","5/21/02","8/26/02",-83.35184,42.9452,147104376
"08N11E1901","Long Lake","MI-MSH",8081,2009,"Status & Trends","44-271","08N","11E",19,"Lapeer","6/8/09","8/3/09",-83.22426,43.10471,147104089
"08N11E1901","Long Lake","MI-MSH",11656,2018,"Status & Trends","44-271","08N","11E",19,"Lapeer","3/5/18","3/5/18",-83.22426,43.10471,147104089
"08N11E0802","Twin Lake","MI-MSH",4042,2003,"Status & Trends","44-286","08N","11E",8,"Lapeer","5/27/03","8/22/03",NA,NA,NA
"09N09E0601","Otter Lake","MI-MSH",10058,2014,"Status & Trends","44-316","09N","09E",6,"Lapeer","6/2/14","8/15/14",-83.46037,43.2186,147103912
"06N09E3402","Davison Lake","MI-MSH",6933,2007,"Status & Trends","44-79","06N","09E",34,"Lapeer","6/11/07","8/15/07",-83.3762,42.88499,147104525
"06N09E3401","Big Fish Lake","MI-MSH",3528,2002,"Status & Trends","44-81","06N","09E",34,"Lapeer","5/14/02","8/20/02",-83.39093,42.88638,147104498
"06N09E3401","Big Fish Lake","MI-MSH",11294,2017,"Status & Trends","44-81","06N","09E",34,"Lapeer","5/30/17","8/16/17",-83.39093,42.88638,147104498
"29N14W2402","Fisher Lake","MI-MCM",8115,2009,"Status & Trends","45-58","29N","14W",24,"Leelanau","5/27/09","5/29/09",-85.9479,44.89596,129226200
"29N14W2502","Little Glen Lake","MI-MCM",8116,2009,"Status & Trends","45-86","29N","14W",25,"Leelanau","6/1/09","6/15/09",-85.94269,44.88849,129226201
"29N14W2501","Glen Lake","MI-MCM",8250,2009,"Status & Trends","45-86","29N","14W",25,"Leelanau","5/26/09","7/15/09",-85.94269,44.88849,129226201
"06S01E1101","Round Lake","MI-MER",10590,2015,"Status & Trends","46-163","06S","01E",11,"Lenawee","5/11/15","5/20/15",-84.27565,41.96721,NA
"05S02E1001","Allen Lake","MI-MER",11355,2017,"Status & Trends","46-56","05S","02E",10,"Lenawee","5/30/17","8/22/17",-84.1837,42.05721,151873978
"05S02E1004","Kelly Lake","MI-MER",3517,2002,"Status & Trends","46-76","05S","02E",10,"Lenawee","5/7/02","9/10/02",-84.16981,42.05304,151873976
"05S02E1002","Killarney Lake","MI-MER",3326,2002,"Status & Trends","46-77","05S","02E",10,"Lenawee","5/7/02","9/10/02",-84.1712,42.04916,151873979
"05S02E1201","Sand Lake","MI-MER",4024,2003,"Status & Trends","46-80","05S","02E",12,"Lenawee","5/27/03","9/3/03",-84.13731,42.04721,151873969
"05S02E1801","Deep Lake","MI-MER",8508,2010,"Status & Trends","46-91","05S","02E",18,"Lenawee","5/17/10","8/30/10",-84.23787,42.03332,151874030
"12620","Strawberry Lake","MI-MER",4554,2004,"Status & Trends","47-101","01N","05E",27,"Livingston","5/24/04","8/19/04",-83.84148,42.44916,145333723
"01N05E28","Gallagher Lake","MI-MER",4555,2004,"Status & Trends","47-102","01N","05E",33,"Livingston","5/24/04","8/19/04",-83.86231,42.44249,145333772
"01S06E0501","Whitmore Lake","MI-MER",7553,2008,"Status & Trends","47-153","01N","06E",32,"Livingston","5/27/08","6/5/08",-83.75036,42.43677,145333719
"02N05E0401","Lake Chemung","MI-MSH",6926,2007,"Status & Trends","47-252","02N","05E",4,"Livingston","5/21/07","8/16/07",-83.8487,42.58221,148710583
"03N04E2501","Thompson Lake","MI-MSH",5508,2005,"Status & Trends","47-379","03N","04E",25,"Livingston","5/16/05","8/31/05",-83.91287,42.61249,148710561
"03N04E2501","Thompson Lake","MI-MSH",11659,2018,"Status & Trends","47-379","03N","04E",25,"Livingston","5/29/18","8/15/18",-83.91287,42.61249,148710561
"04N08E0601","Hoisington Lake","MI-MSH",8392,2010,"Status & Trends","47-469","04N","06E",6,"Livingston","5/24/10","8/4/10",-83.79898,42.76916,148710308
"04N05E0101","Bennett Lake","MI-MSH",6281,2006,"Status & Trends","47-472","04N","05E",1,"Livingston","5/22/06","8/26/06",-83.82037,42.77166,NA
"04N05E0101","Bennett Lake","MI-MSH",11982,2019,"Status & Trends","47-472","04N","05E",1,"Livingston","5/6/19","8/27/19",-83.82037,42.77166,NA
"04N05E0801","Indian Lake, Central","MI-MSH",10478,2015,"Status & Trends","47-485","04N","05E",8,"Livingston","6/1/15","8/18/15",-83.88943,42.74425,148710390
"04N05E0802","Indian Lake, North","MI-MSH",10479,2015,"Status & Trends","47-486","04N","05E",8,"Livingston","6/1/15","6/1/15",-83.89642,42.74975,148710379
"11135","Indian Lake","MI-MSH",10477,2015,"Status & Trends","47-495","04N","05E",17,"Livingston","6/1/15","6/4/15",-83.88898,42.74082,148710418
"04N05E0301","Bishop Lake","MI-MER",6901,2007,"Status & Trends","47-68","04N","05E",3,"Livingston","5/7/07","9/13/07",-83.84759,42.49971,145332956
"01N05E0801","Lime (Chenango) Lake","MI-MER",4030,2003,"Status & Trends","47-73","01N","05E",6,"Livingston","5/20/03","5/20/03",-83.89454,42.50416,145332941
"11844","Mud Lake","MI-MES",8536,2010,"Status & Trends","48-105","46N","11W",27,"Luce","5/24/10","",-85.65815,46.34582,86671755
"47N11W1701","Bass Lake","MI-MES",7694,2008,"Status & Trends","48-171","47N","11W",17,"Luce","6/23/08","6/26/08",-85.71704,46.46388,86671161
"47N11W3002","Syphon Lake","MI-MES",9222,2013,"Status & Trends","48-175","47N","11W",30,"Luce","5/7/12","5/9/13",-85.73954,46.44804,86671343
"47N11W3501","Silver Creek Pond","MI-MES",8538,2010,"Status & Trends","48-197","47N","11W",35,"Luce","4/20/10","",-85.64868,46.42843,86671411
"47N12W0901","Belle Lake 1","MI-MES",3884,2002,"Status & Trends","48-222","47N","12W",9,"Luce","6/17/02","6/21/02",-85.80831,46.4861,86671053
"47N12W0901","Belle Lake 1","MI-MES",11600,2018,"Status & Trends","48-222","47N","12W",9,"Luce","6/4/18","6/10/18",-85.80831,46.4861,86671053
"47N12W0902","Belle Lake 2","MI-MES",12154,2019,"Status & Trends","48-223","47N","12W",9,"Luce","6/11/19","6/14/19",-85.81606,46.48354,86671079
"45N10W0901","Kaks Lake","MI-MES",12144,2019,"Status & Trends","48-24","45N","10W",9,"Luce","5/21/19","7/28/19",-85.5726,46.30221,86671873
"45N10W1101","Twin Lake","MI-MES",8245,2009,"Status & Trends","48-28","45N","10W",11,"Luce","6/22/09","8/2/09",-85.52929,46.30777,86671829
"49N11W3405","Long Lake","MI-MES",4671,2004,"Status & Trends","48-330","49N","11W",34,"Luce","6/22/04","6/25/04",-85.66788,46.59499,109944390
"45N11W1101","East Lake","MI-MES",6376,2006,"Status & Trends","48-43","45N","11W",11,"Luce","5/30/06","6/1/06",-85.65454,46.30582,86671875
"45N11W1101","East Lake","MI-MES",9600,2013,"Status & Trends","48-43","45N","11W",11,"Luce","6/3/13","6/7/13",-85.65454,46.30582,86671875
"49N07W3001","Clark Lake","MI-MES",8244,2009,"Status & Trends","48-449","49N","07W",30,"Chippewa","7/7/09","7/9/09",-85.24751,46.62161,109943752
"49N07W3001","Clark Lake","MI-MES",10913,2016,"Status & Trends","48-449","49N","07W",30,"Chippewa","5/23/16","5/26/16",-85.24751,46.62161,109943752
"50N09W3602","Muskrat Lake East","MI-MES",3878,2002,"Status & Trends","48-461","50N","09W",36,"Luce","6/11/02","6/12/02",-85.36953,46.68089,109943466
"50N09W3603","Muskrat Lake West","MI-MES",3879,2002,"Status & Trends","48-462","50N","09W",36,"Luce","6/11/02","6/12/02",-85.37319,46.68027,109943476
"49N09W1401","Pike Lake","MI-MES",10915,2016,"Status & Trends","48-480","49N","09W",14,"Luce","6/6/16","6/13/16",-85.40732,46.64193,109943660
"49N09W1501","Little Pike Lake","MI-MES",3465,2002,"Status & Trends","48-481","","",NA,"","","",-85.4251,46.64471,109943654
"49N09W1701","Little Perch Lake","MI-MES",4040,2003,"Status & Trends","48-485","49N","09W",17,"Luce","5/27/03","8/22/03",-85.45093,46.64749,109943662
"11998","Round (North Manistique) Lake","MI-MNM",4087,2003,"Status & Trends","48-49","45N","12W",13,"Luce","6/9/03","6/12/03",-85.73899,46.28749,44362910
"11998","Round (North Manistique) Lake","MI-MNM",10110,2014,"Status & Trends","48-49","45N","12W",13,"Luce","6/16/14","6/25/14",-85.73899,46.28749,44362910
"11998","Round (North Manistique) Lake","MI-MNM",12103,2019,"Status & Trends","48-49","45N","12W",13,"Luce","8/22/19","8/22/19",-85.73899,46.28749,44362910
"44N12W0201","Manistique Lake","MI-MNM",4085,2003,"Status & Trends","48-53","44N","12W",2,"Mackinac","6/16/03","6/20/03",-85.78343,46.23332,44363696
"44N12W0201","Manistique Lake","MI-MNM",9601,2013,"Status & Trends","48-53","44N","12W",2,"Mackinac","6/10/13","8/29/13",-85.78343,46.23332,44363696
"49N11W0201","Muskallonge Lake","MI-MES",4673,2004,"Status & Trends","48-566","49N","11W",2,"Luce","6/7/04","8/1/04",-85.63177,46.66943,109943604
"49N11W0201","Muskallonge Lake","MI-MES",10107,2014,"Status & Trends","48-566","49N","11W",2,"Luce","6/9/14","6/24/14",-85.63177,46.66943,109943604
"49N11W0201","Muskallonge Lake","MI-MES",12106,2019,"Status & Trends","48-566","49N","11W",2,"Luce","8/16/19","8/16/19",-85.63177,46.66943,109943604
"49N10W1902","Perch Lake","MI-MES",8535,2011,"Status & Trends","48-573","49N","10W",19,"Luce","6/1/10","",-85.59649,46.6311,109943956
"49N10W2301","Cris Brown Lake","MI-MES",12471,2020,"Status & Trends","48-583","49N","10W",23,"Luce","6/29/20","7/2/20",-85.5076,46.6261,109943970
"49N11W0502","Ready Lakes","MI-MES",6572,2007,"Status & Trends","48-608","49N","11W",5,"Luce","8/3/06","8/3/06",-85.7126,46.66249,109943694
"49N11W3401","Deer Lake","MI-MES",4136,2003,"Status & Trends","48-621","49N","11W",34,"Luce","7/16/03","8/26/03",-85.67371,46.60638,109944274
"49N11W3301","Sid Lake","MI-MES",4137,2003,"Status & Trends","48-622","49N","11W",33,"Luce","7/16/03","8/27/03",-85.67982,46.60527,109944284
"49N11W3302","Pratt Lake","MI-MES",10108,2014,"Status & Trends","48-623","49N","11W",33,"Luce","5/27/14","5/30/14",-85.68871,46.6061,109944280
"49N12W3601","Tank Lake","MI-MES",7579,2008,"Status & Trends","48-628","49N","12W",36,"Luce","5/27/08","5/29/08",-85.74454,46.60165,109944380
"49N11W3303","Beaverhouse Lake","MI-MES",4663,2004,"Status & Trends","48-634","49N","11W",33,"Luce","6/21/04","6/25/04",-85.68066,46.59888,109944360
"49N11W3406","Pretty Lake","MI-MES",10914,2016,"Status & Trends","48-639","49N","11W",34,"Luce","5/16/16","5/19/16",-85.6601,46.6011,109944316
"49N11W3404","Camp Eight Lake","MI-MES",6377,2006,"Status & Trends","48-643","49N","11W",34,"Luce","6/5/06","8/15/06",-85.67038,46.59943,109944322
"49N12W0101","Blind Sucker Flooding","MI-MES",6824,2007,"Status & Trends","48-650","49N","12W",1,"Luce","5/16/07","",-85.75316,46.66249,109943746
"49N12W1001","Brucker Lake","MI-MES",10454,2015,"Status & Trends","48-654","49N","12W",10,"Luce","6/1/15","6/4/15",-85.78343,46.65804,109943834
"11396","Little Lake Harbor","MI-MES",8551,2010,"Status & Trends","48-677","50N","08W",19,"Luce","6/14/10","",-85.36149,46.71277,109943400
"50N08W2901","Bodi Lake","MI-MES",2946,2001,"Status & Trends","48-681","50N","08W",29,"Luce","7/2/01","8/1/01",-85.32704,46.70082,109943412
"50N08W2901","Bodi Lake","MI-MES",7802,2009,"Status & Trends","48-681","50N","08W",29,"Luce","6/29/09","7/29/09",-85.32704,46.70082,109943412
"50N08W3001","Culhane Lake","MI-MES",3880,2002,"Status & Trends","48-685","50N","08W",30,"Luce","8/5/02","8/8/02",-85.35371,46.69415,109943422
"46N10W2701","Dollarville Flowage","MI-MES",9599,2013,"Status & Trends","48-740","46N","10W",27,"Luce","5/28/13","6/6/13",-85.54889,46.35439,86671725
"42N11W2301","Duel Lake","MI-MNM",8872,2011,"Status & Trends","49-117","42N","11W",23,"Mackinac","5/23/11","5/26/11",-85.65038,46.0136,118045157
"43N12W3301","Milakokia Lake","MI-MNM",10932,2016,"Status & Trends","49-127","43N","12W",33,"Mackinac","5/9/16","5/15/16",-85.80427,46.07915,118044909
"10742","East Lake","MI-MNH",8478,2010,"Status & Trends","49-166","43N","04W",16,"Mackinac","5/17/10","",-84.80427,46.12638,123111060
"43N10W0201","Millecoquins Lake","MI-MNM",9224,2012,"Status & Trends","49-262","43N","10W",2,"Mackinac","5/21/12","6/12/12",-85.51315,46.1536,118044311
"44N11W1801","S Manistique (Whitefish) Lake","MI-MNM",4086,2003,"Status & Trends","49-280","44N","11W",18,"Mackinac","6/2/03","8/20/03",-85.7626,46.17499,44364664
"44N11W1801","S Manistique (Whitefish) Lake","MI-MNM",9225,2012,"Status & Trends","49-280","44N","11W",18,"Mackinac","6/25/12","7/2/12",-85.7626,46.17499,44364664
"44N08W2101","Big Dollar Lake","MI-MES",2957,2001,"Status & Trends","49-336","44N","08W",21,"Mackinac","7/30/01","7/31/01",-85.3026,46.19499,86672271
"44N08W2101","Big Dollar Lake","MI-MES",8242,2009,"Status & Trends","49-336","44N","08W",21,"Mackinac","5/18/09","5/21/09",-85.3026,46.19499,86672271
"42N05W3401","Brevoort Lake","MI-MNM",11795,2018,"Status & Trends","49-45","42N","05W",34,"Mackinac","5/21/18","5/29/18",-84.93343,45.99999,118044901
"42N06W2401","Little Brevoort Lake","MI-MNM",8241,2009,"Status & Trends","49-97","42N","06W",23,"Mackinac","5/26/09","7/30/09",-85.00843,46.01804,118044907
"28N09W1201","Lake Skegemog","MI-MCM",6870,2008,"Status & Trends","5-1","28N","09W",24,"Kalkaska","6/2/08","6/5/08",-85.35028,44.82789,155417513
"29N09W2001","Elk Lake","MI-MCM",6783,2008,"Status & Trends","5-2","29N","09W",20,"Antrim","6/2/08","6/6/08",-85.38343,44.86665,155417505
"11337","Lake Of The Woods","MI-MCM",3493,2003,"Status & Trends","5-27","29N","07W",17,"Antrim","5/19/03","8/13/03",-85.18343,44.9086,155417452
"29N07W2701","Green Lake","MI-MCM",7866,2009,"Status & Trends","5-38","29N","07W",27,"Antrim","5/18/09","5/20/09",-85.13565,44.88165,155417475
"28N08W0601","Torch Lake","MI-MCM",11733,2018,"Status & Trends","5-51","28N","08W",6,"Antrim","6/4/18","6/25/18",-85.30843,44.98332,155417478
"30N07W1801","Intermediate Lake","MI-MCM",7588,2008,"Status & Trends","5-75","30N","07W",18,"Antrim","6/16/08","8/26/08",-85.22065,45.0236,155417412
"32N07W1901","Sixmile Lake","MI-MCM",3494,2003,"Status & Trends","5-89","32N","07W",19,"Charlevoix","5/6/03","8/13/03",-85.20121,45.11249,155417371
"31N08W1401","Hanley Lake","MI-MCM",5202,2005,"Status & Trends","5-97","31N","08W",14,"Antrim","6/20/05","8/15/05",-85.26287,45.08388,155417384
"04N12E","Stony Creek Lake","MI-MER",8898,2011,"Status & Trends","50-175","04N","12E",31,"Macomb","5/31/11","6/8/11",-83.08994,42.71891,146646749
"11061","Hodenpyl Dam Pond","MI-MCM",8855,2011,"Status & Trends","51-126","23N","12W",30,"Wexford","5/31/11","6/3/11",-85.81978,44.36245,60089640
"24N15W3301","Bear Lake","MI-MCM",7928,2009,"Status & Trends","51-132","24N","15W",33,"Manistee","6/9/09","7/16/09",-86.15287,44.43332,60089362
"23N16W3301","Portage Lake","MI-MCM",7927,2009,"Status & Trends","51-142","23N","16W",33,"Manistee","5/18/09","10/31/08",-86.24037,44.35999,111111113
"47N29W0501","Fish Lake","MI-MNM",8267,2009,"Status & Trends","52-1152","47N","29W",5,"Marquette","6/8/09","6/18/09",-87.9626,46.49749,152512217
"47N30W0901","Lake Michigamme","MI-MNM",3963,2002,"Status & Trends","52-1185","47N","30W",9,"Marquette","6/10/02","9/4/02",-88.07377,46.48486,110734859
"47N30W0901","Lake Michigamme","MI-MNM",11454,2017,"Status & Trends","52-1185","47N","30W",9,"Marquette","6/5/17","6/9/17",-88.07377,46.48486,110734859
"48N25W1001","Tourist Park Basin","MI-MWS",11457,2017,"Status & Trends","52-1246","48N","25W",10,"Marquette","6/5/17","6/8/17",-87.41797,46.56933,105233665
"48N26W0901","Sundstrom (Hoist) Lake","MI-MWS",3792,2002,"Status & Trends","52-1263","48N","26W",9,"Marquette","6/11/02","9/4/02",-87.57093,46.56471,105233689
"48N26W1401","McClure Basin","MI-MWS",12242,2019,"Status & Trends","52-1268","48N","26W",14,"Marquette","6/16/19","6/20/19",-87.52072,46.55252,105233685
"48N27W3101","Teal Lake","MI-MWS",10628,2015,"Status & Trends","52-1288","48N","27W",31,"Marquette","6/1/15","6/4/15",-87.62815,46.51304,105233829
"48N29W0201","Wolf Lake","MI-MNM",6693,2006,"Status & Trends","52-1356","48N","29W",2,"Marquette","7/11/06","8/23/06",-87.89399,46.59165,152512179
"48N29W0501","Clear Lake","MI-MNM",6665,2006,"Status & Trends","52-1360","48N","29W",5,"Marquette","7/18/06","7/20/06",-87.95761,46.5858,152512180
"46N24W3202","Sporley Lake","MI-MES",8246,2009,"Status & Trends","52-139","46N","24W",32,"Marquette","7/13/09","7/16/09",-87.33871,46.33304,109946536
"11250","Lake Arfelin","MI-MNM",3980,2002,"Status & Trends","52-1585","49N","30W",21,"Marquette","6/24/02","9/11/02",-88.0601,46.62971,110734343
"45N24W1901","Little Lake","MI-MNM",8877,2011,"Status & Trends","52-182","45N","24W",19,"Marquette","6/6/11","6/21/11",-87.34815,46.27693,152512528
"45N25W3601","Bass Lake (East)","MI-MNM",7224,2007,"Status & Trends","52-196","45N","25W",36,"Marquette","6/4/07","8/21/07",-87.37093,46.25888,152512555
"45N25W2701","Johnson Lake","MI-MNM",7971,2008,"Status & Trends","52-255","45N","25W",27,"Marquette","6/23/08","8/27/08",-87.42149,46.26582,152512548
"45N26W3601","Little Shag Lake","MI-MNM",7206,2007,"Status & Trends","52-259","45N","26W",36,"Marquette","6/18/07","8/1/07",-87.49482,46.25832,152512556
"45N26W2901","Bass Lake (West)","MI-MNM",5293,2003,"Status & Trends","52-305","45N","26W",29,"Marquette","6/3/03","8/14/03",-87.59204,46.26332,152512549
"45N30W2401","Witch Lake","MI-MNM",9996,2013,"Status & Trends","52-666","45N","30W",24,"Marquette","6/17/13","10/8/13",-88.00871,46.27832,110735793
"46N24W3201","Big Trout Lake","MI-MES",7693,2008,"Status & Trends","52-710","46N","24W",32,"Marquette","6/16/08","",-87.34343,46.34554,109946486
"46N29W1801","Michigamme River Basin","MI-MNM",11782,2018,"Status & Trends","52-839","46N","29W",18,"Marquette","6/11/18","6/20/18",-87.98565,46.40165,NA
"46N29W0801","Perch Lake","MI-MNM",11781,2018,"Status & Trends","52-846","46N","29W",8,"Marquette","6/11/18","6/19/18",-87.95565,46.40082,110735183
"19N15W2901","Round Lake","MI-MCM",8437,2010,"Status & Trends","53-143","19N","15W",29,"Mason","5/17/10","5/20/10",-86.11454,44.00832,82815694
"19N18W2001","Hamlin Lake","MI-MCM",8434,2010,"Status & Trends","53-155","19N","18W",20,"Mason","6/7/10","7/15/10",-86.49111,44.0376,82815984
"15N08W1401","Pretty Lake","MI-MSH",8076,2009,"Status & Trends","54-118","15N","08W",14,"Mecosta","6/15/09","8/10/09",-85.23482,43.6961,150436762
"15N08W2201","Horsehead Lake","MI-MCM",7926,2009,"Status & Trends","54-136","15N","08W",22,"Mecosta","5/11/09","7/13/09",-85.25815,43.67721,121860038
"15N08W2201","Horsehead Lake","MI-MCM",8435,2010,"Status & Trends","54-136","15N","08W",22,"Mecosta","6/21/10","6/23/10",-85.25815,43.67721,121860038
"16N07W0402","Merril Lake","MI-MSH",9075,2012,"Status & Trends","54-194","16N","07W",4,"Mecosta","5/14/12","8/17/12",-85.15565,43.8086,150436670
"16N07W0401","Gorrel Lake","MI-MSH",10057,2014,"Status & Trends","54-195","16N","07W",4,"Mecosta","5/12/14","8/22/14",-85.16037,43.79971,150436681
"16N08W2901","Chippewa Lake","MI-MSH",8075,2009,"Status & Trends","54-232","16N","08W",29,"Mecosta","5/18/09","8/10/09",-85.29815,43.75443,150436722
"10015","Alma Lake","MI-MCM",7195,2007,"Status & Trends","54-306","16N","09W",32,"Mecosta","5/15/07","5/18/07",-85.41565,43.73665,121859938
"14N08W0801","Blue Lake","MI-MCM",3446,2003,"Status & Trends","54-53","14N","08W",8,"Mecosta","7/15/02","8/26/02",-85.28371,43.61971,121860154
"14N08W0802","Lake Mecosta","MI-MCM",3445,2002,"Status & Trends","54-54","14N","08W",8,"Mecosta","5/21/02","6/25/02",-85.29759,43.61304,121860155
"11612","Martiny Lake","MI-MSH",5999,2005,"Status & Trends","54-90","15N","07W",6,"Mecosta","5/2/05","5/5/05",-85.18328,43.71782,150436758
"11612","Martiny Lake","MI-MSH",11388,2017,"Status & Trends","54-90","15N","07W",6,"Mecosta","6/12/17","8/22/17",-85.18328,43.71782,150436758
"15N07W1201","Strong Lake","MI-MSH",10763,2016,"Status & Trends","54-94","15N","07W",12,"Mecosta","5/31/16","6/3/16",-85.09482,43.70443,150436754
"11247","Lake Ann","MI-MNM",3929,2002,"Status & Trends","55-16","35N","28W",3,"Menominee","6/3/02","6/5/02",-87.75037,45.45554,75475805
"11247","Lake Ann","MI-MNM",3933,2002,"Status & Trends","55-16","35N","28W",3,"Menominee","9/9/02","9/9/02",-87.75037,45.45554,75475805
"35N29W2401","Shakey Lake","MI-MNM",7188,2007,"Status & Trends","55-31","35N","29W",24,"Menominee","6/11/07","8/2/07",-87.8351,45.41971,75475931
"15N01W2401","Sanford Lake","MI-MSH",6887,2007,"Status & Trends","56-14","15N","01W",24,"Midland","5/14/07","10/17/07",-84.38009,43.67693,149759448
"15N01W2401","Sanford Lake","MI-MSH",10524,2015,"Status & Trends","56-14","15N","01W",24,"Midland","6/8/15","8/10/15",-84.38009,43.67693,149759448
"22N08W0101","Lake Missaukee","MI-MCM",4584,2004,"Status & Trends","57-45","22N","08W",1,"Missaukee","6/1/04","9/30/04",-85.24676,44.32221,121857955
"10N06W1801","Half Moon Lake","MI-MSM",6900,2007,"Status & Trends","59-155","10N","06W",18,"Montcalm","4/30/07","8/20/07",-85.05982,43.25221,151870608
"10N07W1001","Derby Lake","MI-MSM",6951,2007,"Status & Trends","59-189","10N","07W",10,"Montcalm","6/15/07","8/20/07",-85.12704,43.27499,151870593
"11309","Lake Montcalm","MI-MSM",4743,2004,"Status & Trends","59-264","12N","07W",31,"Montcalm","5/17/04","5/21/04",-85.18926,43.38082,152707011
"11N10W0801","Little Whitefish Lake","MI-MCM",7599,2008,"Status & Trends","59-369","11N","10W",8,"Montcalm","5/12/08","6/10/08",-85.53704,43.35804,121860913
"12298","Rock Lake","MI-MSH",6890,2007,"Status & Trends","59-395","12N","05W",29,"Montcalm","5/29/07","8/23/07",-84.94287,43.40832,150436910
"10105","Bass Lake","MI-MSH",7336,2008,"Status & Trends","59-403","12N","05W",29,"Montcalm","5/19/08","9/9/08",-84.92732,43.40249,150436913
"09N08W1901","Baldwin Lake","MI-MSM",4929,2004,"Status & Trends","59-99","09N","08W",19,"Montcalm","6/28/04","7/1/04",-85.26982,43.16388,152707332
"31N04E0401","Avalon Lake","MI-MNH",8466,2010,"Status & Trends","60-162","31N","04E",4,"Montmorency","5/10/10","8/25/10",-83.95621,45.10388,113470445
"32N04E2901","Long Lake","MI-MNH",6102,2006,"Status & Trends","60-166","32N","04E",29,"Montmorency","5/15/06","5/19/06",-83.97315,45.12777,113470369
"31N04E0501","Ess Lake","MI-MNH",4156,2003,"Status & Trends","60-167","31N","04E",5,"Montmorency","5/27/03","5/29/03",-83.98343,45.11249,113470423
"29N01E2901","West Twin Lake","MI-MNH",8127,2009,"Status & Trends","60-19","29N","01E",29,"Montmorency","6/1/09","10/23/09",-84.34954,44.87749,83975891
"32N02E1401","Twin Tomahawk Lakes","MI-MNH",11725,2018,"Status & Trends","60-208","32N","02E",14,"Montmorency","5/21/18","5/23/18",-84.14254,45.16926,155408567
"32N02E3401","Clear Lake","MI-MNH",4741,2004,"Status & Trends","60-217","32N","02E",34,"Montmorency","5/17/04","5/20/04",-84.17926,45.12193,155408580
"12382","Rush Lake","MI-MNH",10544,2015,"Status & Trends","60-223","32N","03E",32,"Montmorency","6/22/15","6/26/15",-84.09649,45.11971,113470463
"10933","Grass Lake","MI-MNH",9216,2012,"Status & Trends","60-226","32N","03E",35,"Montmorency","5/21/12","12/7/12",-84.0251,45.12693,113470399
"29N02E0301","Avery Lake","MI-MNH",8095,2009,"Status & Trends","60-29","29N","02E",3,"Montmorency","5/18/09","5/21/09",-84.19093,44.9361,113471151
"29N02E2401","Sage Lake","MI-MNH",5518,2005,"Status & Trends","60-34","29N","02E",24,"Montmorency","6/27/05","8/23/05",-84.14848,44.89261,113471225
"30N01E2201","Gaylanta Lake","MI-MNH",4081,2003,"Status & Trends","60-71","30N","01E",22,"Montmorency","5/6/03","5/9/03",-84.30343,44.97721,113471035
"30N02E3001","McCormick Lake","MI-MNH",4855,2004,"Status & Trends","60-74","30N","02E",30,"Montmorency","6/1/04","6/2/04",-84.24843,44.9586,113471097
"30N02E1201","Atlanta Pond","MI-MNH",9671,2013,"Status & Trends","60-87","30N","02E",12,"Montmorency","5/20/13","6/25/13",-84.15448,45.00047,113470895
"30N02E2301","Crooked Lake","MI-MNH",10158,2015,"Status & Trends","60-91","30N","02E",23,"Montmorency","5/27/14","1/6/15",-84.1473,44.98022,113471013
"30N02E1501","Lake Fifteen","MI-MNH",8865,2011,"Status & Trends","60-93","30N","02E",15,"Montmorency","5/16/11","8/17/11",-84.1776,44.98804,113470985
"11N16W0102","Twin Lake, East","MI-MCM",11012,2016,"Status & Trends","61-109","11N","16W",1,"Muskegon","5/16/16","5/26/16",-86.17509,43.36943,121861004
"11N18W0201","White Lake","MI-MCM",6941,2007,"Status & Trends","61-125","11N","18W",2,"Muskegon","6/11/07","8/21/07",-86.38037,43.37721,82820398
"12N16W0301","Big Blue Lake","MI-MCM",7856,2008,"Status & Trends","61-144","","",NA,"","","",-86.20426,43.45388,82820054
"12N16W3301","Little Blue Lake","MI-MCM",8143,2009,"Status & Trends","61-197","12N","16W",33,"Muskegon","6/1/09","6/17/09",-86.22732,43.39249,82820318
"10N16W2801","Muskegon Lake","MI-MCM",7825,2008,"Status & Trends","61-66","10N","16W",28,"Muskegon","5/19/08","6/11/08",-86.28315,43.2361,121861263
"10777","Englewright Lake","MI-MCM",8532,2010,"Status & Trends","62-11","11N","11W",26,"Newaygo","6/7/10","6/23/10",-85.58315,43.31971,121861011
"12N14W1001","Fremont Lake","MI-MCM",8144,2009,"Status & Trends","62-128","12N","14W",10,"Newaygo","6/8/09","6/24/09",-85.96482,43.45054,121860736
"13N12W0401","Lake White Cloud","MI-MCM",12027,2019,"Status & Trends","62-158","13N","12W",4,"Newaygo","6/3/19","6/6/19",-85.76288,43.54674,82819312
"13N13W1001","Robinson Lake","MI-MCM",11991,2004,"Status & Trends","62-188","13N","13W",10,"Newaygo","5/4/04","6/23/04",-85.85509,43.53221,82819488
"14N13W1301","Diamond Lake","MI-MCM",7419,2008,"Status & Trends","62-269","14N","13W",13,"Newaygo","5/27/08","9/22/08",-85.81759,43.60499,82818916
"12N12W0001","Sylvan Lake","MI-MCM",4903,2004,"Status & Trends","62-81","12N","12W",6,"Newaygo","6/20/04","7/6/04",-85.78538,43.46478,121864970
"12N12W0601","Emerald Lake","MI-MCM",4904,2004,"Status & Trends","62-82","12N","12W",6,"Newaygo","6/20/04","7/6/04",-85.78843,43.46193,121860628
"04N07E3001","Tipsico Lake","MI-MSH",4605,2004,"Status & Trends","63-1047","04N","07E",19,"Oakland","5/10/04","5/12/04",-83.67732,42.71666,148710421
"04N07E3001","Tipsico Lake","MI-MSH",10059,2014,"Status & Trends","63-1047","04N","07E",19,"Oakland","6/10/14","8/18/14",-83.67732,42.71666,148710421
"04N10E0501","Greens Lake","MI-MER",9816,2013,"Status & Trends","63-1203","04N","10E",5,"Oakland","5/20/13","5/23/13",-83.42509,42.71388,146646861
"05N10E31","Stringy Lakes","MI-MER",9649,2013,"Status & Trends","63-1546","05N","10E",28,"Oakland","5/28/13","8/29/13",NA,NA,NA
"05N11E2701","Lakeville Lake","MI-MER",4553,2004,"Status & Trends","63-1650","05N","11E",27,"Oakland","5/17/04","8/23/04",-83.15009,42.8286,146646317
"05N07E1901","Big Seven Lake","MI-MSH",4609,2004,"Status & Trends","63-1691","05N","07E",19,"Oakland","5/17/04","5/19/04",-83.67895,42.81876,147104900
"05N08E2801","Heron Lake","MI-MSH",4576,2004,"Status & Trends","63-1692","05N","08E",28,"Oakland","5/24/04","6/2/04",-83.53065,42.81082,147104885
"05N08E2801","Heron Lake","MI-MSH",11658,2018,"Status & Trends","63-1692","05N","08E",28,"Oakland","5/21/18","8/13/18",-83.53065,42.81082,147104885
"02N07E2801","Kent Lake","MI-MER",4552,2004,"Status & Trends","63-2","02N","07E",28,"Oakland","5/10/04","8/24/04",-83.67593,42.51305,145332627
"02N08E0101","Union Lake","MI-MER",3518,2002,"Status & Trends","63-232","02N","08E",1,"Oakland","5/28/02","8/23/02",-83.44493,42.60218,145331204
"11657","Middle Straits Lake","MI-MER",6919,2007,"Status & Trends","63-263","02N","09E",18,"Oakland","5/7/07","9/10/07",-83.43232,42.57999,145331665
"02N08E2001","Upper Proud Lake","MI-MER",6262,2006,"Status & Trends","63-278","02N","08E",20,"Oakland","5/22/06","8/25/06",-83.52287,42.56805,145331833
"12243","Proud Lake","MI-MER",8166,2006,"Status & Trends","63-278","02N","08E",20,"Oakland","5/22/06","8/25/06",-83.52287,42.56805,145331833
"02N08E2101","Lower Proud Lake","MI-MER",6261,2006,"Status & Trends","63-279","02N","08E",21,"Oakland","5/22/06","8/25/06",-83.52897,42.56592,145331833
"11588","Lower Pettibone Lake","MI-MER",4023,2003,"Status & Trends","63-673","03N","07E",27,"Oakland","5/21/03","8/28/03",-83.60982,42.6261,145331021
"03N08E1301","Pontiac Lake","MI-MER",6927,2007,"Status & Trends","63-731","03N","08E",13,"Oakland","5/14/07","8/6/07",-83.45843,42.66666,145330572
"03N08E2302","Tull Lake","MI-MER",10588,2015,"Status & Trends","63-780","03N","08E",23,"Oakland","5/18/15","5/23/15",-83.46676,42.64999,145330805
"03N08E2701","Cedar Island Lake","MI-MER",8063,2009,"Status & Trends","63-789","03N","08E",27,"Oakland","5/26/09","6/1/09",-83.47926,42.62971,145330973
"04N09E3101","Lotus Lake","MI-MER",12057,2019,"Status & Trends","63-854","04N","09E",31,"Oakland","5/20/19","9/5/19",-83.42869,42.70338,146646951
"03N09E0701","Maceday Lake","MI-MER",11986,2019,"Status & Trends","63-856","03N","09E",7,"Oakland","5/20/19","11/26/19",-83.4312,42.69027,146646951
"03N09E1101","Loon Lake","MI-MER",8515,2010,"Status & Trends","63-865","03N","09E",11,"Oakland","5/10/10","",-83.35732,42.68027,146646999
"03N09E1103","Schoolhouse Lake","MI-MER",10151,2014,"Status & Trends","63-869","03N","09E",11,"Oakland","5/20/14","8/13/14",-83.34843,42.68555,146646969
"03N09E1201","Upper Silver Lake","MI-MER",10975,2016,"Status & Trends","63-871","03N","09E",12,"Oakland","5/24/16","6/7/16",-83.34317,42.67885,146647009
"12071","Pentwater Lake","MI-MCM",11053,2016,"Status & Trends","64-251","16N","18W",23,"Oceana","6/6/16","6/29/16",-86.42093,43.76999,82818094
"12686","Tee Lake","MI-MSH",11384,2017,"Status & Trends","65-10","21N","01E",18,"Ogemaw","6/5/17","8/14/17",-84.3501,44.20832,149759017
"23N01E1102","Clear Lake","MI-MNH",6916,2007,"Status & Trends","65-104","23N","01E",11,"Ogemaw","5/29/07","9/26/07",-84.28315,44.40499,83977753
"23N01E0201","Horseshoe Lake","MI-MNH",8465,2009,"Status & Trends","65-106","23N","01E",2,"Ogemaw","5/25/09","5/28/09",-84.28065,44.41666,83977733
"10953","Grebe Lake","MI-MSH",10531,2015,"Status & Trends","65-121","23N","04E",7,"Ogemaw","5/26/15","8/13/15",-84.00565,44.40332,118253095
"23N03E0201","Grousehaven Lake","MI-MSH",10054,2014,"Status & Trends","65-123","23N","03E",2,"Ogemaw","6/15/14","8/13/14",-84.02093,44.4111,118253065
"23N03E1101","Devoe Lake","MI-MSH",9072,2012,"Status & Trends","65-133","23N","03E",11,"Ogemaw","6/4/12","8/15/12",-84.0265,44.40081,118253167
"23N03E1102","Jewett Lake","MI-MSH",9255,2012,"Status & Trends","65-135","23N","03E",11,"Ogemaw","6/4/12","8/15/12",-84.02895,44.39553,118253229
"23N04E0501","Rifle Lake","MI-MSH",8072,2009,"Status & Trends","65-149","23N","04E",5,"Ogemaw","6/1/09","8/11/09",-83.98037,44.41193,118252977
"23N04E0801","George Lake","MI-MSH",8390,2010,"Status & Trends","65-151","23N","04E",8,"Ogemaw","5/24/10","5/24/10",-83.97315,44.39916,118253147
"23N04E2801","Sage Lake","MI-MSH",6952,2007,"Status & Trends","65-161","23N","04E",28,"Ogemaw","6/11/07","8/24/07",-83.94562,44.35006,118253503
"23N04E2801","Sage Lake","MI-MSH",12019,2019,"Status & Trends","65-161","23N","04E",28,"Ogemaw","6/10/19","8/28/19",-83.94562,44.35006,118253503
"24N04E3401","Au Sable Lake","MI-MNH",6915,2007,"Status & Trends","65-200","24N","04E",34,"Ogemaw","5/15/07","9/20/07",-83.92037,44.42999,83977587
"11492","Long Lake","MI-MSH",10532,2015,"Status & Trends","65-30","21N","03E",1,"Ogemaw","6/15/15","8/14/15",-84.00718,44.24039,118254313
"10318","Bush Lake","MI-MSH",4608,2004,"Status & Trends","65-48","21N","03E",26,"Ogemaw","5/24/04","6/24/04",-84.0351,44.1911,118254697
"10318","Bush Lake","MI-MSH",11746,2018,"Status & Trends","65-48","21N","03E",26,"Ogemaw","6/26/18","8/21/18",-84.0351,44.1911,118254697
"21N03E2601","Skidway Lake","MI-MSH",10055,2014,"Status & Trends","65-57","21N","03E",26,"Ogemaw","6/2/14","8/20/14",-84.0326,44.18471,118254731
"21N04E0601","Hardwood Lake","MI-MSH",4610,2004,"Status & Trends","65-60","21N","04E",6,"Ogemaw","6/1/04","",-83.99426,44.24582,118254265
"21N04E0601","Hardwood Lake","MI-MSH",12013,2019,"Status & Trends","65-60","21N","04E",6,"Ogemaw","5/20/19","8/26/19",-83.99426,44.24582,118254265
"11184","Johnson Lake","MI-MSH",10765,2016,"Status & Trends","65-63","21N","04E",21,"Ogemaw","6/7/16","8/23/16",-83.95704,44.20804,118254567
"22N02E2201","Peach Lake","MI-MSH",4606,2004,"Status & Trends","65-79","22N","02E",22,"Ogemaw","5/17/04","6/7/04",-84.17037,44.29443,118254033
"22N02E2201","Peach Lake","MI-MSH",12015,2019,"Status & Trends","65-79","22N","02E",22,"Ogemaw","5/28/19","8/21/19",-84.17037,44.29443,118254033
"12609","Steusser Lake","MI-MWS",12072,2019,"Status & Trends","66-293","47N","40W",24,"Ontonagon","5/27/19","6/17/19",-89.25038,46.45304,123392889
"46N38W1801","Bond Falls Flowage","MI-MWS",4544,2003,"Status & Trends","66-31","46N","38W",18,"Ontonagon","6/23/03","6/27/03",-89.10343,46.39443,123394248
"48N42W0401","Lake Gogebic","MI-MWS",5725,2005,"Status & Trends","66-377","48N","42W",4,"Ontonagon","6/6/05","6/10/05",-89.5889,46.58269,123394135
"ONTON01","Victoria Reservoir","MI-MWS",4491,2002,"Status & Trends","66-406","50N","39W",31,"Ontonagon","6/3/02","6/5/02",-89.23102,46.68695,123390379
"ONTON0032","Lake of the Clouds","MI-MWS",6282,2006,"Status & Trends","66-575","51N","43W",22,"Ontonagon","5/30/06","6/2/06",-89.75204,46.80387,123146856
"19N09W0301","Rose Lake","MI-MCM",3444,2002,"Status & Trends","67-242","19N","09W",3,"Osceola","6/4/02","6/24/02",-85.38176,44.06471,60091356
"19N09W0301","Rose Lake","MI-MCM",4336,2002,"Status & Trends","67-242","19N","09W",3,"Osceola","8/19/02","8/19/02",-85.38176,44.06471,60091356
"17N08W1601","Tiff Lake","MI-MCM",5387,2004,"Status & Trends","67-26","17N","08W",16,"Osceola","6/16/04","",-85.28565,43.8636,121859513
"19N09W3201","Wells Lake","MI-MCM",6624,2006,"Status & Trends","67-288","19N","09W",32,"Osceola","5/30/06","7/13/06",-85.41676,43.99582,121859037
"28N04E3601","McCollum Lake","MI-MNH",8467,2010,"Status & Trends","68-103","28N","04E",36,"Oscoda","6/1/10","6/29/10",-83.89255,44.77688,113471507
"28N01E1001","Tea Lake","MI-MNH",7557,2008,"Status & Trends","68-142","28N","01E",10,"Oscoda","5/19/08","8/14/08",-84.29454,44.84166,83976013
"10115","Bass Lake","MI-MNH",3689,2002,"Status & Trends","68-209","28N","04E",18,"Oscoda","6/3/02","8/23/02",-84.00121,44.82666,113471351
"26N02E1201","Mio Pond","MI-MNH",8452,2010,"Status & Trends","68-53","26N","02E",12,"Oscoda","6/8/09","6/11/09",-84.13419,44.66044,83976639
"29N01W0101","Big Bear Lake","MI-MNH",3525,2002,"Status & Trends","69-1","29N","01W",1,"Otsego","5/7/02","8/22/02",-84.38454,44.93804,83975749
"30N02W0801","Big Lake","MI-MNH",8468,2010,"Status & Trends","69-157","","",NA,"","","",-84.58482,45.00832,155411274
"30N02W0801","Big Lake","MI-MNH",8866,2012,"Status & Trends","69-157","30N","02W",8,"Otsego","6/8/11","1/24/12",-84.58482,45.00832,155411274
"30N03W1401","Dixon Lake","MI-MNH",3868,2002,"Status & Trends","69-185","30N","03W",14,"Otsego","5/7/02","5/9/02",-84.63454,44.99471,83975689
"11295","Lake Manuka","MI-MNH",7619,2008,"Status & Trends","69-225","30N","04W",36,"Otsego","6/2/08","8/11/08",-84.73871,44.95999,83975793
"11904","Mud Lake","MI-MNH",4090,2003,"Status & Trends","69-316","32N","02W",1,"Otsego","6/30/03","8/11/03",-84.49649,45.19249,155411162
"32N02W1101","Pickerel Lake","MI-MNH",6950,2007,"Status & Trends","69-318","32N","02W",11,"Otsego","6/18/07","6/21/07",-84.52232,45.17666,155411186
"29N03W1201","Opal Lake","MI-MNH",3536,2002,"Status & Trends","69-57","29N","03W",12,"Otsego","5/14/02","8/21/02",-84.61315,44.9261,83975841
"30N03W3201","Otsego Lake","MI-MNH",6931,2007,"Status & Trends","69-61","30N","03W",32,"Otsego","5/21/07","5/24/07",-84.69232,44.95554,83975759
"29N03W1401","Big Chub Lake","MI-MNH",4266,2003,"Status & Trends","69-66","29N","03W",14,"Otsego","5/12/03","8/14/03",-84.63315,44.90221,83975911
"29N03W2001","Heart Lake","MI-MNH",3610,2002,"Status & Trends","69-75","29N","03W",20,"Otsego","5/21/02","8/14/02",-84.6926,44.89277,83975941
"29N03W2301","Bridge Lake","MI-MNH",10744,2015,"Status & Trends","69-78","29N","03W",23,"Otsego","8/25/15","8/25/15",-84.63621,44.89138,83975937
"10977","Guthrie Lake","MI-MNH",12014,2019,"Status & Trends","69-92","29N","03W",36,"Otsego","5/20/19","6/26/19",-84.61065,44.86138,83976033
"10853","George Lake","MI-MNM",11140,2016,"Status & Trends","7-183","48N","31W",17,"Baraga","5/30/16","6/20/16",-88.20288,46.54915,110734683
"48N33W0901","Parent Lake","MI-MWS",11146,2016,"Status & Trends","7-272","48N","33W",9,"Baraga","5/30/16","6/20/16",-88.43788,46.57387,117627173
"48N33W1901","Vermilac (Worm) Lake","MI-MWS",6255,2006,"Status & Trends","7-285","48N","33W",19,"Baraga","6/6/06","8/24/06",-88.49371,46.53887,117627403
"48N33W2601","King Lake","MI-MWS",9301,2012,"Status & Trends","7-297","48N","33W",26,"Baraga","5/21/12","7/12/12",-88.4101,46.52054,117627513
"49N34W2901","Big Lake","MI-MWS",12046,2019,"Status & Trends","7-540","49N","34W",28,"Baraga","6/3/19","6/18/19",-88.57649,46.61443,117626885
"50N35W3201","Prickett Dam Backwater","MI-MWS",8492,2010,"Status & Trends","7-843","50N","35W",32,"Houghton","6/2/10","6/10/10",-88.66696,46.72398,117626559
"09N13W1501","Crockery Lake","MI-MSM",6303,2006,"Status & Trends","70-164","09N","13W",15,"Ottawa","6/19/06","9/5/06",-85.85148,43.1686,152707355
"06N16W1601","Pigeon Lake","MI-MSM",9064,2011,"Status & Trends","70-73","06N","16W",16,"Ottawa","5/17/11","5/26/11",-86.20454,42.90221,152274778
"33N02E1501","Shoepac Lake","MI-MNH",6903,2007,"Status & Trends","71-11","33N","02E",15,"Presque Isle","5/7/07","5/10/07",-84.17454,45.24443,155408521
"11310","Lake Nettie","MI-MNH",4854,2004,"Status & Trends","71-112","34N","04E",30,"Presque Isle","5/24/04","",-83.99343,45.29916,122383004
"11575","Lost Lake","MI-MNH",6938,2007,"Status & Trends","71-115","34N","04E",32,"Presque Isle","6/4/07","",-83.96649,45.29388,122383011
"34N08E2801","Lake Esau","MI-MNH",4089,2003,"Status & Trends","71-127","34N","08E",28,"Presque Isle","6/16/03","6/19/03",-83.46704,45.31332,122382883
"36N03E1901","Ocqueoc Lake","MI-MNH",10955,2016,"Status & Trends","71-154","36N","03E",19,"Presque Isle","5/9/16","8/30/16",-84.11389,45.47419,122382799
"10125","Bear Den Lake","MI-MNH",4082,2003,"Status & Trends","71-27","33N","02E",32,"Presque Isle","6/16/03","7/1/03",-84.22121,45.2036,155408549
"11263","Lake Emma","MI-MNH",4299,2003,"Status & Trends","71-52","33N","04E",18,"Presque Isle","5/19/03","",-83.99093,45.25527,122383057
"11301","Lake May","MI-MNH",4326,2003,"Status & Trends","71-53","33N","04E",16,"Presque Isle","6/2/03","6/4/03",-83.94871,45.25304,122383047
"12636","Sunken Lake","MI-MNH",8135,2009,"Status & Trends","71-75","33N","06E",32,"Presque Isle","6/22/09","6/25/09",-83.71871,45.21193,NA
"34N07E2301","Grand Lake","MI-MNH",4968,2004,"Status & Trends","71-87","34N","07E",23,"Presque Isle","6/28/04","6/29/04",-83.5001,45.29999,122382916
"24N03W3401","Higgins Lake","MI-MCM",8862,2011,"Status & Trends","72-117","24N","03W",34,"Roscommon","8/22/11","11/1/11",-84.71676,44.47499,121857622
"24N03W3401","Higgins Lake","MI-MCM",9510,2012,"Status & Trends","72-117","24N","03W",34,"Roscommon","7/11/12","7/12/12",-84.71676,44.47499,121857622
"23N01W1601","Lake St. Helen","MI-MNH",8471,2010,"Status & Trends","72-95","23N","01W",16,"Roscommon","6/7/10","6/30/10",-84.46343,44.36416,83977851
"12N04E0201","Haithco Lake","MI-MSH",10768,2016,"Status & Trends","73-78","12N","04E",2,"Saginaw","5/17/16","8/22/16",-83.9592,43.46851,152234191
"47N16W0901","Gemini Lakes","MI-MNM",8239,2009,"Status & Trends","75-1048","47N","16W",9,"Schoolcraft","6/1/09","7/28/09",-86.30343,46.4886,44361778
"47N16W1201","Ross Lake","MI-MNM",4675,2004,"Status & Trends","75-1054","47N","16W",12,"Schoolcraft","6/15/04","8/17/04",-86.2576,46.48082,44361882
"47N16W2201","Worchester Lake","MI-MNM",11333,2017,"Status & Trends","75-1078","47N","16W",22,"Schoolcraft","5/22/17","5/25/17",-86.28149,46.4461,44362082
"43N16W0301","Ashford Lake","MI-MNM",4580,2003,"Status & Trends","75-294","43N","16W",3,"Schoolcraft","6/10/03","6/12/03",-86.29893,46.14433,44365622
"43N16W2301","Dodge Lake","MI-MNM",6320,2006,"Status & Trends","75-297","43N","16W",23,"Schoolcraft","6/13/06","8/22/06",-86.26843,46.11332,44365904
"11216","Kennedy Lake","MI-MNM",8269,2009,"Status & Trends","75-365","44N","13W",14,"Schoolcraft","5/26/09","7/27/09",-85.88649,46.20915,44364212
"41N14W0201","Gulliver Lake","MI-MNM",4916,2004,"Status & Trends","75-47","41N","14W",2,"Schoolcraft","6/14/04","6/15/04",-86.02732,45.98221,118045549
"41N14W0201","Gulliver Lake","MI-MNM",12109,2019,"Status & Trends","75-47","41N","14W",2,"Schoolcraft","6/24/19","7/29/19",-86.02732,45.98221,118045549
"44N18W0702","Petes Lake","MI-MNM",4917,2004,"Status & Trends","75-474","44N","18W",7,"Schoolcraft","6/7/04","8/9/04",-86.60038,46.22638,44364740
"44N18W3101","Corner Lake","MI-MNM",8314,2009,"Status & Trends","75-544","44N","18W",31,"Schoolcraft","6/22/09","9/29/09",-86.60675,46.16008,44365716
"42N16W3001","Indian Lake","MI-MNM",8711,2010,"Status & Trends","75-69","42N","16W",30,"Schoolcraft","6/2/10","6/25/10",-86.33343,45.99165,44366918
"45N17W2901","Boot Lake","MI-MNM",4915,2004,"Status & Trends","75-742","45N","17W",29,"Schoolcraft","6/21/04","6/22/04",-86.44732,46.26971,44363864
"11367","Lily Lake","MI-MNM",7958,2008,"Status & Trends","75-744","45N","17W",21,"Schoolcraft","6/16/08","8/28/08",-86.43454,46.28026,44363734
"47N13W1801","Dutch Fred Lake","MI-MNM",12423,2020,"Status & Trends","75-927","47N","13W",18,"Schoolcraft","7/7/20","7/31/20",-85.9776,46.47193,44361734
"12232","Prairie River Lake","MI-MSM",8741,2010,"Status & Trends","78-128","07S","09W",18,"Saint Joseph","4/26/10","5/25/10",-85.39924,41.86246,155637493
"10803","Fish Lake","MI-MSM",11499,2017,"Status & Trends","78-130","07S","09W",19,"Saint Joseph","5/8/17","5/11/17",-85.39676,41.85304,155637530
"12699","Thompson Lake","MI-MSM",3408,2002,"Status & Trends","78-151","07S","10W",32,"Saint Joseph","5/29/02","6/25/02",-85.49009,41.82527,155637736
"07S11W3501","Klinger Lake","MI-MSM",6257,2006,"Status & Trends","78-171","07S","11W",35,"Saint Joseph","5/22/06","6/8/06",-85.54342,41.80527,155637876
"06S09W1101","Palmer Lake","MI-MSM",8894,2011,"Status & Trends","78-42","06S","09W",11,"Saint Joseph","5/16/11","8/23/11",-85.31648,41.94471,155637149
"06S12W1701","Clear Lake","MI-MSM",8093,2009,"Status & Trends","78-93","06S","12W",17,"Saint Joseph","5/4/09","6/16/09",-85.73287,41.94749,155637079
"12209","Pleasant Lake","MI-MSM",10189,2014,"Status & Trends","78-94","06S","12W",9,"Saint Joseph","5/12/14","5/27/14",-85.70509,41.95693,155637003
"10N08E0101","Murphy Lake","MI-MSH",6865,2007,"Status & Trends","79-2","10N","08E",1,"Tuscola","4/11/07","8/13/07",-83.46176,43.29999,149729908
"12N09E1601","Caro Impoundment","MI-MSH",6911,2007,"Status & Trends","79-44","12N","09E",16,"Tuscola","5/7/07","8/14/07",-83.40839,43.46015,NA
"01N10W1401","Upper Crooked Lake","MI-MSM",4031,2003,"Status & Trends","8-141","01N","10W",14,"Barry","5/19/03","6/19/03",-85.41914,42.49012,152517730
"01N10W1402","Lower Crooked Lake","MI-MSM",4032,2003,"Status & Trends","8-202","01N","10W",14,"Barry","5/19/03","5/21/03",-85.46785,42.46489,152517749
"02N10W0501","Gun Lake","MI-MSM",10570,2015,"Status & Trends","8-413","02N","10W",5,"Barry","5/11/15","5/14/15",-85.54095,42.59146,152517598
"03N09W0102","Carter Lake","MI-MSM",10568,2015,"Status & Trends","8-493","03N","09W",1,"Barry","5/4/15","5/7/15",-85.31231,42.66999,157068036
"01N08W0301","Bristol Lake","MI-MSM",3531,2002,"Status & Trends","8-55","01N","08W",3,"Barry","1/1/02","8/19/02",-85.24731,42.48693,157068641
"10053","Baker Lake","MI-MSM",9359,2012,"Status & Trends","8-602","03N","10W",18,"Barry","6/11/12","8/15/12",-85.50093,42.64693,152517518
"10406","Chief Noonday Lake","MI-MSM",8182,2009,"Status & Trends","8-603","03N","10W",17,"Barry","5/18/09","6/26/09",-85.50731,42.64082,152517524
"12065","Payne Lake","MI-MSM",8183,2009,"Status & Trends","8-604","03N","10W",20,"Barry","5/18/09","6/26/09",-85.51926,42.63721,152517524
"03N10W2601","Deep Lake","MI-MSM",7560,2008,"Status & Trends","8-619","03N","10W",26,"Barry","5/5/08","8/27/08",-85.45843,42.62082,157068198
"03N10W2701","Hall Lake","MI-MSM",3530,2002,"Status & Trends","8-623","03N","10W",27,"Barry","1/1/02","8/21/02",-85.48343,42.61499,152517556
"03N10W2701","Hall Lake","MI-MSM",11908,2018,"Status & Trends","8-623","03N","10W",27,"Barry","5/18/18","5/24/18",-85.48343,42.61499,152517556
"01N08W3001","Fine Lake","MI-MSM",7819,2008,"Status & Trends","8-84","01N","08W",29,"Barry","5/19/08","8/12/08",-85.29204,42.44443,157068669
"10457","Clear Lake","MI-MSM",9360,2012,"Status & Trends","80-1","01S","13W",3,"Van Buren","5/7/12","5/31/12",-85.81704,42.41054,152517981
"12705","Threemile Lake","MI-MSM",6920,2007,"Status & Trends","80-233","03S","14W",21,"Van Buren","5/14/07","5/29/07",-85.95176,42.19249,155635997
"02S15W0101","North Scott Lake","MI-MSM",10051,2013,"Status & Trends","80-84","02S","15W",1,"Van Buren","5/13/13","8/19/13",-86.00009,42.33054,152274939
"01N05E3201","Base Line Lake","MI-MER",8059,2009,"Status & Trends","81-107","01N","05E",32,"Livingston","5/5/09","5/8/09",-83.89343,42.42555,145333821
"10552","Crooked Lake","MI-MER",3537,2002,"Status & Trends","81-147","01S","04E",5,"Washtenaw","6/4/02","9/5/02",-84.11287,42.32527,145334075
"02S06E1701","Barton Pond","MI-MER",11738,2018,"Status & Trends","81-179","02S","06E",17,"Washtenaw","5/8/18","5/11/18",-83.75398,42.30988,145334240
"01S03E1001","South Lake","MI-MER",7551,2008,"Status & Trends","81-18","01S","03E",10,"Washtenaw","5/12/08","6/4/08",-84.06815,42.3986,145333941
"02S06E2101","Argo Pond","MI-MER",10589,2015,"Status & Trends","81-194","02S","06E",21,"Washtenaw","5/5/15","5/8/15",-83.74573,42.29117,NA
"03S07E2401","Ford Lake","MI-MER",6259,2006,"Status & Trends","81-266","03S","07E",24,"Washtenaw","5/15/06","8/30/06",-83.56044,42.2064,145334286
"01S03E2801","Winnewana Impoundment","MI-MSM",12177,2019,"Status & Trends","81-376","01S","03E",28,"Washtenaw","5/6/19","5/22/19",-84.08476,42.35816,152094800
"10966","Green Lake","MI-MER",3321,2002,"Status & Trends","81-46","01S","03E",28,"Washtenaw","5/14/02","8/27/02",-84.07509,42.36666,145333993
"01S03E0101","Blind Lake","MI-MER",8061,2009,"Status & Trends","81-5","01S","03E",1,"Washtenaw","5/12/09","6/3/09",-84.01898,42.41554,145333882
"01S03E0201","Bruin Lake","MI-MER",7552,2008,"Status & Trends","81-6","01S","03E",2,"Washtenaw","5/12/08","",-84.03759,42.41999,145333861
"01S03E0301","Joslin Lake","MI-MER",11984,2019,"Status & Trends","81-7","01S","03E",3,"Washtenaw","5/13/19","8/30/19",-84.06981,42.41832,145333875
"01S04E0101","Portage Lake","MI-MER",8060,2009,"Status & Trends","81-71","01S","04E",1,"Washtenaw","5/18/09","",-83.90993,42.41738,145333858
"03S08E2401","Belleville Lake","MI-MER",9242,2012,"Status & Trends","82-157","03S","08E",24,"Wayne","5/14/12","6/7/12",-83.44178,42.21436,145334300
"04S09E3101","Flat Rock Impoundment","MI-MER",11368,2017,"Status & Trends","82-235","04S","09E",31,"Wayne","5/22/17","8/6/17",-83.29681,42.10033,NA
"11977","Newburgh Lake","MI-MER",5426,2005,"Status & Trends","82-56","01S","09E",31,"Wayne","5/31/05","9/9/05",-83.41197,42.36654,NA
"15N05E3002","Tobico Lagoon","MI-MSH",9702,2013,"Status & Trends","9-50","15N","05E",30,"Bay","6/4/13","8/22/13",-83.93324,43.69328,152868427
"15N05E3001","Tobico Marsh Lake","MI-MSH",9071,2012,"Status & Trends","9-54","15N","05E",30,"Bay","5/29/12","6/1/12",-83.94576,43.71363,152868416
